,school_name,school_addr,latitude,longitude
0,서울휘경초등학교,서울특별시 동대문구 망우로6길 48,37.585735799999995,127.0581216
1,서울동답초등학교,서울특별시 동대문구 답십리로60길 12,37.571816600000005,127.0642055
2,서울답십리초등학교,서울특별시 동대문구 전농로3길 23,37.569003,127.0554225
3,서울신답초등학교,서울특별시 동대문구 천호대로 177,37.5730006,127.0433994
4,서울용두초등학교,서울특별시 동대문구 천호대로13길 43,37.57574279999999,127.0288848
5,서울이문초등학교,서울특별시 동대문구 신이문로 16,37.60204,127.0641929
6,서울군자초등학교,서울특별시 동대문구 한천로6길 21,37.5643015,127.06134709999999
7,서울장평초등학교,서울특별시 동대문구 답십리로69길 27,37.5738074,127.07326880000001
8,서울안평초등학교,서울특별시 동대문구 장한로14길 61,37.56571160000001,127.07134950000001
9,서울배봉초등학교,서울특별시 동대문구 사가정로 193,37.580028000000006,127.06594140000001
10,서울전동초등학교,서울특별시 동대문구 전농로16길 61,37.579095200000005,127.06113799999999
11,서울전곡초등학교,서울특별시 동대문구 전농로 172,37.5805755,127.0562692
12,서울전농초등학교,서울특별시 동대문구 사가정로 66,37.574417600000004,127.0542426
13,서울홍파초등학교,서울특별시 동대문구 고산자로 518,37.5858976,127.0395874
14,서울종암초등학교,서울특별시 동대문구 무학로44길 25,37.582158899999996,127.0311722
15,서울홍릉초등학교,서울특별시 동대문구 회기로 90,37.5909805,127.0474406
16,서울청량초등학교,서울특별시 동대문구 회기로25길 31,37.5919847,127.0558443
17,서울휘봉초등학교,서울특별시 동대문구 장안벚꽃로 309,37.5859982,127.0701251
18,경희초등학교,서울특별시 동대문구 경희대로 26,37.5939495015,127.0548901682
19,서울삼육초등학교,서울특별시 동대문구 회기로10길 63,37.5891291,127.0477488
20,은석초등학교,서울특별시 동대문구 장안벚꽃로 205,37.5785598048,127.0757635382
21,서울면목초등학교,서울특별시 중랑구 면목로 434,37.591356,127.0876154
22,서울면남초등학교,서울특별시 중랑구 면목로30나길 38,37.576983899999995,127.08802060000001
23,서울동원초등학교,서울특별시 중랑구 송림길 114,37.6047385,127.10494969999999
24,서울면북초등학교,서울특별시 중랑구 용마공원로5길 32,37.5944753,127.10347040000002
25,서울망우초등학교,서울특별시 중랑구 망우로72길 49,37.598329,127.1035908
26,서울면일초등학교,서울특별시 중랑구 용마산로100길 13,37.5921204,127.09985359999999
27,서울면중초등학교,서울특별시 중랑구 용마산로70길 43,37.5824024,127.0966419
28,서울중곡초등학교,서울특별시 중랑구 면목로23길 20,37.5745386,127.08384699999999
29,서울면동초등학교,서울특별시 중랑구 면목로57길 32,37.5854287,127.0866805
30,서울중목초등학교,서울특별시 중랑구 동일로 665,37.5897528,127.0793361
31,서울중랑초등학교,서울특별시 중랑구 봉우재로6길 26,37.589369500000004,127.0757847
32,서울원묵초등학교,서울특별시 중랑구 숙선옹주로 109,37.6178662,127.08643070000001
33,서울묵현초등학교,서울특별시 중랑구 동일로157길 75,37.608998299999996,127.0736243
34,서울신묵초등학교,서울특별시 중랑구 동일로149길 46,37.607267900000004,127.07555190000001
35,서울상봉초등학교,서울특별시 중랑구 동일로126가길 11,37.598184499999995,127.0836798
36,서울신현초등학교,서울특별시 중랑구 봉화산로 188,37.605513200000004,127.09346880000001
37,서울신내초등학교,서울특별시 중랑구 용마산로125나길 22,37.6048021,127.1001538
38,서울중화초등학교,서울특별시 중랑구 신내로7가길 22,37.6030032,127.0946485
39,서울봉화초등학교,서울특별시 중랑구 신내로15길 110,37.613289,127.09239240000001
40,서울묵동초등학교,서울특별시 중랑구 동일로138길 27,37.6040651,127.08143829999999
41,서울중흥초등학교,서울특별시 중랑구 봉화산로 82,37.601635200000004,127.08413999999999
42,금성초등학교,서울특별시 중랑구 신내로21길 55,37.615015299999996,127.09003059999999
43,서울은빛초등학교,서울특별시 은평구 진관3로 73-17,37.63517120000001,126.9200278
44,서울신도초등학교,서울특별시 은평구 진관1로 77-23,37.6327684,126.9291409
45,서울은진초등학교,서울특별시 은평구 진관1로 21-20,37.632607,126.9209282
46,서울진관초등학교,서울특별시 은평구 진관4로 78-16,37.645051,126.9291301
47,서울북한산초등학교,서울특별시 은평구 대서문길 42-3,37.6540522,126.95033799999999
48,서울갈현초등학교,서울특별시 은평구 연서로29길 31,37.6192587,126.91664309999999
49,서울구현초등학교,서울특별시 은평구 갈현로15길 51,37.609222700000004,126.90584820000001
50,서울구산초등학교,서울특별시 은평구 서오릉로15길 16,37.6124476,126.9094521
51,서울은평초등학교,서울특별시 은평구 은평로 239,37.601956799999996,126.9341059
52,서울녹번초등학교,서울특별시 은평구 녹번로1길 1,37.604290999999996,126.926111
53,서울수리초등학교,서울특별시 은평구 불광로14길 10-10,37.6204888,126.93424350000001
54,서울대조초등학교,서울특별시 은평구 연서로18길 17,37.613223299999994,126.91958840000001
55,서울연신초등학교,서울특별시 은평구 연서로 347,37.6262605,126.92827369999999
56,서울불광초등학교,서울특별시 은평구 불광로 51,37.6134285463,126.93072041200001
57,서울연천초등학교,서울특별시 은평구 연서로34길 22,37.6208125,126.9294822
58,서울연광초등학교,서울특별시 은평구 연서로35길 37,37.6238264,126.9240662
59,서울수색초등학교,서울특별시 은평구 수색로16길 21,37.5850571,126.8954934
60,서울신사초등학교,서울특별시 은평구 가좌로 275-2,37.5926639,126.91212150000001
61,서울서신초등학교,서울특별시 은평구 은평터널로 150,37.5923285,126.9074837
62,서울상신초등학교,서울특별시 은평구 가좌로 361,37.5976771,126.9048
63,서울역촌초등학교,서울특별시 은평구 은평로3길 25,37.6017363,126.91426570000002
64,서울은명초등학교,서울특별시 은평구 은평로4길 21-9,37.5979615,126.91883329999999
65,서울연은초등학교,서울특별시 은평구 백련산로2길 35,37.5905111346,126.9251778
66,서울응암초등학교,서울특별시 은평구 가좌로6길 20,37.58826079999999,126.9217624
67,서울증산초등학교,서울특별시 은평구 증산서길 61,37.5821614,126.9043095
68,서울대은초등학교,서울특별시 은평구 통일로69길 12-15,37.6118365,126.92615430000001
69,충암초등학교,서울특별시 은평구 가좌로5길 5,37.5850457,126.9217386
70,선일초등학교,서울특별시 은평구 갈현로29길 27,37.6197497,126.9126173
71,예일초등학교,서울특별시 은평구 연서로 117,37.6101791,126.91516229999999
72,은혜초등학교,서울특별시 은평구 통일로78가길 20,37.6177328,126.9275737
73,서울미동초등학교,서울특별시 서대문구 충정로 52,37.5631109,126.9662737
74,서울금화초등학교,서울특별시 서대문구 통일로 165,37.5683284,126.9630251
75,서울홍은초등학교,서울특별시 서대문구 세검정로 105,37.5974199,126.9496287
76,서울홍제초등학교,서울특별시 서대문구 홍은중앙로 13,37.5931186,126.94482849999999
77,서울북성초등학교,서울특별시 서대문구 북아현로1나길 22(북아현동),37.5591762,126.95226909999998
78,서울연가초등학교,서울특별시 서대문구 증가로12가길 49-50,37.5802016,126.9180758
79,서울대신초등학교,서울특별시 서대문구 이화여대2길 27,37.5580828,126.947849
80,서울북가좌초등학교,서울특별시 서대문구 거북골로19길 20,37.5774792,126.9074665
81,서울연희초등학교,서울특별시 서대문구 연희로 136,37.569167,126.9339564
82,서울창서초등학교,서울특별시 서대문구 연세로5나길 30-3,37.5576122,126.9338905
83,서울홍연초등학교,서울특별시 서대문구 백련사길 55,37.5818632,126.9309472
84,서울안산초등학교,서울특별시 서대문구 통일로 321,37.5790158,126.9515446
85,서울인왕초등학교,서울특별시 서대문구 세무서길 33-9,37.5901698,126.9450604
86,서울고은초등학교,서울특별시 서대문구 모래내로 441,37.58477020000001,126.9433678
87,경기초등학교,서울특별시 서대문구 경기대로9길 10,37.5648923,126.96287009999999
88,이화여자대학교사범대학부속초등학교,서울특별시 서대문구 성산로 512-39,37.5612266,126.94262309999999
89,추계초등학교,서울특별시 서대문구 북아현로11가길 7,37.5628641,126.95316840000001
90,명지초등학교,서울특별시 서대문구 명지2길 32-20,37.583556099999996,126.92804609999999
91,서울공덕초등학교,서울특별시 마포구 만리재옛길 13,37.545700200000006,126.95377859999998
92,서울창천초등학교,서울특별시 마포구 백범로1길 56,37.5548865,126.93932009999999
93,서울용강초등학교,서울특별시 마포구 백범로17길 9,37.54861470000001,126.94401670000002
94,서울마포초등학교,서울특별시 마포구 도화2길 64,37.53842720000001,126.9494344
95,서울동교초등학교,서울특별시 마포구 월드컵로25길 86,37.5582046,126.90235039999999
96,서울망원초등학교,서울특별시 마포구 방울내로5길 28,37.5608234,126.9008405
97,서울서강초등학교,서울특별시 마포구 독막로 113,37.5483494,126.92658929999999
98,서울하늘초등학교,서울특별시 마포구 월드컵북로 502-14,37.5855353,126.8806962
99,서울서교초등학교,서울특별시 마포구 와우산로23길 20-27,37.5546731,126.92512579999999
100,서울성원초등학교,서울특별시 마포구 월드컵로36길 34,37.567288700000006,126.9052439
101,서울성서초등학교,서울특별시 마포구 성미산로7길 24,37.5605954796,126.91092644780001
102,서울중동초등학교,서울특별시 마포구 월드컵북로 152,37.5666231,126.91127900000001
103,서울신석초등학교,서울특별시 마포구 대흥로 33,37.5442479,126.9378894
104,서울아현초등학교,서울특별시 마포구 굴레방로 6,37.555510299999995,126.95596609999998
105,서울소의초등학교,서울특별시 마포구 마포대로24길 42,37.5522666,126.9608455
106,서울한서초등학교,서울특별시 마포구 대흥로24바길 27,37.5535191,126.94957579999999
107,서울염리초등학교,서울특별시 마포구 토정로37길 37,37.542446500000004,126.9461953
108,서울신북초등학교,서울특별시 마포구 월드컵북로38길 26,37.5712061,126.90511640000001
109,서울성산초등학교,서울특별시 마포구 양화로3길 94,37.5534098,126.9111567
110,서울상지초등학교,서울특별시 마포구 월드컵로42길 30,37.579602,126.8821351
111,서울상암초등학교,서울특별시 마포구 월드컵북로 353,37.5759905,126.89226509999999
112,홍익대학교사범대학부속초등학교,서울특별시 마포구 성미산로 51,37.560107200000004,126.9134939
113,서울천왕초등학교,서울특별시 구로구 천왕로1길 11,37.4816096,126.8367160785
114,서울영일초등학교,서울특별시 구로구 남부순환로105길 218,37.48530170000001,126.88407360000001
115,서울미래초등학교,서울특별시 구로구 새말로 73,37.505016,126.88794240000001
116,서울고원초등학교,서울특별시 구로구 경인로46길 13,37.4974706,126.86597179999998
117,서울고산초등학교,서울특별시 구로구 중앙로 6,37.49924179999999,126.8653696
118,서울개웅초등학교,서울특별시 구로구 개봉로11길 98,37.488569700000006,126.8500524
119,서울개명초등학교,서울특별시 구로구 개봉로1다길 16-9,37.4828583,126.85054469999999
120,서울온수초등학교,서울특별시 구로구 부일로 893,37.4940717,126.825993
121,서울매봉초등학교,서울특별시 구로구 고척로21길 55,37.5046996,126.844375
122,서울개봉초등학교,서울특별시 구로구 개봉로16길 30-11,37.4897274,126.858306
123,서울고척초등학교,서울특별시 구로구 경서로 31,37.5006668,126.8569791
124,서울덕의초등학교,서울특별시 구로구 고척로 213,37.5062766,126.85679879999999
125,서울세곡초등학교,서울특별시 구로구 고척로33길 34,37.5048823,126.84905800000001
126,서울동구로초등학교,서울특별시 구로구 구로중앙로14길 43,37.4950456,126.89231059999999
127,서울신구로초등학교,서울특별시 구로구 가마산로27길 69,37.499552,126.88936580000001
128,서울영서초등학교,서울특별시 구로구 도림로20길 57,37.4882883,126.89467420000001
129,서울구로남초등학교,서울특별시 구로구 디지털로27길 76,37.4848279,126.89059579999999
130,서울구로초등학교,서울특별시 구로구 구로중앙로27나길 9,37.497461240999996,126.88655235200001
131,서울구일초등학교,서울특별시 구로구 구일로 68,37.4927407,126.8729387
132,서울신미림초등학교,서울특별시 구로구 신도림로 26,37.506927399999995,126.87949340000002
133,서울신도림초등학교,서울특별시 구로구 신도림로19길 44,37.5123256,126.8833965
134,서울오류초등학교,서울특별시 구로구 경인로19길 39,37.49814979999999,126.8423578
135,서울오정초등학교,서울특별시 구로구 경인로2길 10,37.489624,126.82651489999999
136,서울오류남초등학교,서울특별시 구로구 서해안로24길 22,37.4896067,126.83871059999998
137,서울두산초등학교,서울특별시 금천구 범안로11길 3,37.4672494,126.89097209999998
138,서울문교초등학교,서울특별시 금천구 독산로54길 102,37.4667151,126.9089754
139,서울영남초등학교,서울특별시 금천구 문성로 62-15,37.4754537,126.90943390000001
140,서울금동초등학교,서울특별시 금천구 금하로30길 53,37.447427399999995,126.9164244
141,서울문백초등학교,서울특별시 금천구 시흥대로47길 43-1,37.4470903,126.8995074
142,서울신흥초등학교,서울특별시 금천구 독산로36 나 길 21,37.459686700000006,126.9090436
143,서울가산초등학교,서울특별시 금천구 남부순환로 1304-11,37.4781195,126.896405
144,서울정심초등학교,서울특별시 금천구 독산로78다길 89,37.4717252,126.9083606
145,서울문성초등학교,서울특별시 금천구 시흥대로 460,37.4747768,126.89946440000001
146,서울독산초등학교,서울특별시 금천구 시흥대로104길 31,37.4655786,126.90005690000001
147,서울안천초등학교,서울특별시 금천구 한내로 69-16,37.4585946,126.88835549999999
148,서울금천초등학교,서울특별시 금천구 탑골로5길 60,37.4546475,126.9126228
149,서울탑동초등학교,서울특별시 금천구 탑골로 47-3,37.452434100000005,126.9149142
150,서울백산초등학교,서울특별시 금천구 시흥대로38길 78,37.4466467,126.905247
151,서울금산초등학교,서울특별시 금천구 시흥대로24길 57,37.4418157,126.908303
152,서울시흥초등학교,서울특별시 금천구 독산로23길 26,37.4546436,126.9049575
153,동광초등학교,서울특별시 금천구 탑골로10길 45,37.4516719331,126.91688743590001
154,서울여의도초등학교,서울특별시 영등포구 여의대방로 439,37.5228903,126.93681200000002
155,서울영원초등학교,서울특별시 영등포구 도영로22길 31,37.510719992,126.9021815984
156,서울영중초등학교,서울특별시 영등포구 양산로 185,37.5236591,126.90381380000001
157,서울영동초등학교,서울특별시 영등포구 국회대로53길 20,37.527007361,126.9077037214
158,서울당서초등학교,서울특별시 영등포구 당산로 187,37.5319593,126.89973229999998
159,서울도림초등학교,서울특별시 영등포구 가마산로65길 22,37.5079604,126.9070328
160,서울대동초등학교,서울특별시 영등포구 대림로21길 6,37.493599700000004,126.90049779999998
161,서울영등포초등학교,서울특별시 영등포구 경인로 756,37.5129475656,126.898215
162,서울영문초등학교,서울특별시 영등포구 문래로 56,37.5194948,126.8876868
163,서울선유초등학교,서울특별시 영등포구 선유로43가길 14,37.5328162,126.8927942
164,서울당중초등학교,서울특별시 영등포구 선유로 131,37.5263783,126.88972509999999
165,서울도신초등학교,서울특별시 영등포구 도림로53길 32-9,37.498728,126.9008446
166,서울신영초등학교,서울특별시 영등포구 도신로4길 32,37.5006847,126.8957265
167,서울신대림초등학교,서울특별시 영등포구 대림로8길 25,37.492244,126.9058543
168,서울영림초등학교,서울특별시 영등포구 시흥대로173길 14,37.4873525,126.9024483
169,서울문래초등학교,서울특별시 영등포구 문래로 104,37.518539600000004,126.89328859999999
170,서울영신초등학교,서울특별시 영등포구 도신로60길 23,37.509968,126.91800900000001
171,서울대영초등학교,서울특별시 영등포구 신길로23길 43,37.5023694,126.90615179999999
172,서울우신초등학교,서울특별시 영등포구 신길로 190,37.509564000000005,126.91189229999999
173,서울대방초등학교,서울특별시 영등포구 여의대방로35길 14,37.5026701,126.91914809999999
174,서울대길초등학교,서울특별시 영등포구 대방천로 206,37.4977844,126.91323030000001
175,서울당산초등학교,서울특별시 영등포구 선유로55길 32,37.5397741,126.89636770000001
176,서울윤중초등학교,서울특별시 영등포구 여의나루로2길 14,37.5197467,126.9228068
177,서울초당초등학교,서울특별시 도봉구 해등로32길 11,37.6584988,127.0221014
178,서울신학초등학교,서울특별시 도봉구 방학로 247-21,37.660990399999996,127.02551310000001
179,서울창경초등학교,서울특별시 도봉구 도봉로129길 54,37.6561144,127.0347544
180,서울창림초등학교,서울특별시 도봉구 덕릉로63길 46,37.6429724,127.04154869999999
181,서울누원초등학교,서울특별시 도봉구 마들로 859-44,37.6869304,127.04906940000001
182,서울오봉초등학교,서울특별시 도봉구 시루봉로 285,37.6718842,127.04028819999999
183,서울도봉초등학교,서울특별시 도봉구 도봉로173길 96,37.679378299999996,127.038218
184,서울방학초등학교,서울특별시 도봉구 도당로9길 34,37.6640395,127.0321675
185,서울신방학초등학교,서울특별시 도봉구 시루봉로 173,37.6659578,127.0292294
186,서울창도초등학교,서울특별시 도봉구 방학로 32-28,37.663831,127.0490956
187,서울숭미초등학교,서울특별시 도봉구 노해로 179,37.6508211,127.0279643
188,서울쌍문초등학교,서울특별시 도봉구 우이천로 360,37.6489734,127.024308
189,서울백운초등학교,서울특별시 도봉구 삼양로146길 17,37.6532035,127.0139875
190,서울월천초등학교,서울특별시 도봉구 노해로70길 96,37.6478356,127.05220159999999
191,서울자운초등학교,서울특별시 도봉구 마들로13길 166,37.6577174,127.0463946
192,서울가인초등학교,서울특별시 도봉구 도봉로136다길 4,37.659906799999995,127.04315919999999
193,서울창동초등학교,서울특별시 도봉구 해등로16길 81,37.6551201,127.0446861
194,서울창원초등학교,서울특별시 도봉구 해등로 103,37.6525531,127.0405915
195,서울창일초등학교,서울특별시 도봉구 노해로66길 84,37.647169500000004,127.0476085
196,서울신창초등학교,서울특별시 도봉구 덕릉로60길 93,37.6361731,127.04219690000001
197,서울신화초등학교,서울특별시 도봉구 우이천로 120,37.632669799999995,127.04085959999999
198,동북초등학교,서울특별시 도봉구 시루봉로 53,37.655351,127.02682890000001
199,한신초등학교,서울특별시 도봉구 노해로49길 69,37.6529105,127.03180630000001
200,서울신계초등학교,서울특별시 노원구 초안산로 29,37.6301665,127.05298799999998
201,서울녹천초등학교,서울특별시 노원구 마들로3길 34,37.628801200000005,127.06311310000001
202,서울덕암초등학교,서울특별시 노원구 덕릉로112길 68,37.666488799999996,127.08146780000001
203,서울온곡초등학교,서울특별시 노원구 한글비석로52길 59,37.667608200000004,127.0657902
204,서울상원초등학교,서울특별시 노원구 한글비석로54길 119,37.667187799999994,127.0598254
205,서울불암초등학교,서울특별시 노원구 중계로 178,37.6510667,127.0806469
206,서울수암초등학교,서울특별시 노원구 중계로12길 9,37.647873700000005,127.0813164
207,서울중계초등학교,서울특별시 노원구 한글비석로19길 39,37.6577549,127.0730277
208,서울연촌초등학교,서울특별시 노원구 공릉로58길 36,37.63506470000001,127.07286210000001
209,서울태랑초등학교,서울특별시 노원구 화랑로51나길 31,37.6259486,127.0905347
210,서울태릉초등학교,서울특별시 노원구 노원로1길 36,37.6228668,127.0852435
211,서울공연초등학교,서울특별시 노원구 동일로192가길 16,37.627253100000004,127.0741645
212,서울용원초등학교,서울특별시 노원구 섬밭로 144,37.6296027,127.06889309999998
213,서울공릉초등학교,서울특별시 노원구 동일로173길 12,37.6188016,127.0741878
214,서울신상계초등학교,서울특별시 노원구 상계로 267,37.667474299999995,127.07579040000002
215,서울상계초등학교,서울특별시 노원구 상계로9길 39,37.6593115,127.06624209999998
216,서울계상초등학교,서울특별시 노원구 한글비석로41가길 24,37.66271,127.0682669
217,서울상곡초등학교,서울특별시 노원구 노원로38길 34,37.6627218,127.06251499999999
218,서울상월초등학교,서울특별시 노원구 동일로221길 27,37.65865377,127.05698224
219,서울당현초등학교,서울특별시 노원구 동일로213길 52,37.648634,127.0583817
220,서울상천초등학교,서울특별시 노원구 덕릉로 443,37.6462819,127.0581071
221,서울동일초등학교,서울특별시 노원구 한글비석로 566,37.6651664,127.054549
222,서울노원초등학교,서울특별시 노원구 동일로230나길 32,37.67331779999999,127.0582937
223,서울노일초등학교,서울특별시 노원구 동일로 1625,37.673239200000005,127.0547828
224,서울수락초등학교,서울특별시 노원구 동일로 1745,37.6842939,127.05483429999998
225,서울한천초등학교,서울특별시 노원구 마들로 45,37.620463799999996,127.06901299999998
226,서울연지초등학교,서울특별시 노원구 월계로55길 48,37.63347879999999,127.0599789
227,서울선곡초등학교,서울특별시 노원구 광운로2길 1,37.6184174,127.0582095
228,서울월계초등학교,서울특별시 노원구 월계로45가길 10,37.6276242,127.0504153
229,서울원광초등학교,서울특별시 노원구 덕릉로76길 18,37.6542123,127.07478870000001
230,서울을지초등학교,서울특별시 노원구 중계로 239,37.6503519,127.07312990000001
231,서울중원초등학교,서울특별시 노원구 섬밭로 316,37.6436702,127.0628262
232,서울청계초등학교,서울특별시 노원구 공릉로 431,37.6448867,127.066442
233,서울용동초등학교,서울특별시 노원구 한글비석로1길 81-11,37.641678399999996,127.069476
234,서울중현초등학교,서울특별시 노원구 섬밭로 181,37.632417499999995,127.0662355
235,서울중평초등학교,서울특별시 노원구 섬밭로 241,37.63727960000001,127.0640898
236,서울상경초등학교,서울특별시 노원구 수락산로 237,37.6702084,127.05132090000001
237,서울상수초등학교,서울특별시 노원구 동일로216길 66,37.65158579999999,127.0647353
238,청원초등학교,서울특별시 노원구 한글비석로 506,37.6660284,127.0620129
239,태강삼육초등학교,서울특별시 노원구 화랑로 815,37.6431424,127.10625120000002
240,화랑초등학교,서울특별시 노원구 화랑로 621,37.6292222,127.0905514
241,상명초등학교,서울특별시 노원구 덕릉로 541,37.648470200000006,127.0675498
242,서울대학교사범대학부설초등학교,서울특별시 종로구 대학로 64,37.5770935,127.00380220000001
243,서울청운초등학교,서울특별시 종로구 자하문로 105,37.5859741,126.96917069999999
244,서울매동초등학교,서울특별시 종로구 사직로9길 19,37.577234499999996,126.9668504
245,서울재동초등학교,서울특별시 종로구 북촌로4길 7,37.57992479999999,126.9855602
246,서울교동초등학교,서울특별시 종로구 삼일대로 446,37.5750047731,126.9881499152
247,서울혜화초등학교,서울특별시 종로구 혜화로 32,37.5888137,127.00002490000001
248,서울명신초등학교,서울특별시 종로구 낙산길 250,37.581238799999994,127.013846
249,서울독립문초등학교,서울특별시 종로구 통일로12길 23,37.5741366,126.9602466
250,서울세검정초등학교,서울특별시 종로구 세검정로9길 1,37.6033878,126.9608999
251,서울창신초등학교,서울특별시 종로구 지봉로 73,37.5760326,127.01438219999999
252,서울효제초등학교,서울특별시 종로구 대학로 12,37.572882799999995,127.0032572
253,운현초등학교,서울특별시 종로구 삼일대로 460,37.5758393,126.98781899999999
254,상명대학교사범대학부속초등학교,서울특별시 종로구 홍지문2길 1,37.6005802,126.956708
255,서울남산초등학교,서울특별시 중구 퇴계로22길 17,37.5600487,126.98675559999998
256,서울덕수초등학교,서울특별시 중구 덕수궁길 140,37.568560600000005,126.97444240000002
257,서울봉래초등학교,서울특별시 중구 손기정로 73,37.5561784,126.9637888
258,서울광희초등학교,서울특별시 중구 다산로 269,37.5674432,127.0151801
259,서울장충초등학교,서울특별시 중구 청구로17길 40,37.5594818,127.01141409999998
260,서울신당초등학교,서울특별시 중구 난계로 141,37.563715,127.0237242
261,서울흥인초등학교,서울특별시 중구 청구로6길 11,37.560830700000004,127.0145429
262,서울청구초등학교,서울특별시 중구 다산로 170,37.5582656,127.01419409999998
263,서울충무초등학교,서울특별시 중구 퇴계로50길 13,37.56196679999999,127.001346
264,리라초등학교,서울특별시 중구 소파로2길 7,37.55797020000001,126.9885837
265,숭의초등학교,서울특별시 중구 소파로2길 10,37.556776299999996,126.9875325
266,동산초등학교,서울특별시 중구 매봉18길 109,37.5562058005,127.0167271919
267,서울용산초등학교,서울특별시 용산구 한강대로57길 33,37.5356141639,126.9725514162
268,서울원효초등학교,서울특별시 용산구 효창원로13길 38,37.536213399999994,126.9516606
269,서울청파초등학교,서울특별시 용산구 효창원로 228,37.54751470000001,126.96408020000001
270,서울후암초등학교,서울특별시 용산구 두텁바위로 140,37.550991100000005,126.98233359999999
271,서울이태원초등학교,서울특별시 용산구 녹사평대로40길 19,37.5360669,126.98785900000001
272,서울서빙고초등학교,서울특별시 용산구 서빙고로51길 14,37.52144439999999,126.9921325
273,서울용암초등학교,서울특별시 용산구 녹사평대로60길 39,37.5448696,126.9891625
274,서울보광초등학교,서울특별시 용산구 우사단로 20,37.5324666,126.9963946
275,서울한강초등학교,서울특별시 용산구 한강대로14길 9,37.5252266,126.9651087
276,서울한남초등학교,서울특별시 용산구 한남대로 112,37.539249299999994,127.00512520000001
277,서울금양초등학교,서울특별시 용산구 효창원로 137,37.5406238,126.96133590000002
278,서울삼광초등학교,서울특별시 용산구 두텁바위로1나길 19,37.5473202,126.97682309999999
279,서울남정초등학교,서울특별시 용산구 원효로64길 17-10,37.5360588,126.9649864
280,서울신용산초등학교,서울특별시 용산구 이촌로 255,37.520194000000004,126.9756071
281,신광초등학교,서울특별시 용산구 청파로 263,37.5431703,126.9699957
282,서울방이초등학교,서울특별시 송파구 위례성대로10길 4,37.513091499999994,127.1205626
283,서울가락초등학교,서울특별시 송파구 송파대로37길 45,37.5001667,127.10764250000001
284,서울평화초등학교,서울특별시 송파구 송파대로26길 22,37.4914378,127.1228091
285,서울중대초등학교,서울특별시 송파구 송파대로36길 8,37.4994062,127.1135642
286,서울문덕초등학교,서울특별시 송파구 송이로34길 60,37.4852891,127.1275957
287,서울문정초등학교,서울특별시 송파구 문정로5길 20,37.4884717,127.12891950000001
288,서울가원초등학교,서울특별시 송파구 중대로4길 8,37.489369200000006,127.11102209999999
289,서울문현초등학교,서울특별시 송파구 충민로 137,37.4827534,127.1302223
290,서울잠일초등학교,서울특별시 송파구 올림픽로 95,37.5147399506,127.081635084
291,서울잠신초등학교,서울특별시 송파구 잠실로 32,37.5141141,127.08791950000001
292,서울송전초등학교,서울특별시 송파구 석촌호수로 159,37.5084993,127.09497479999999
293,서울잠동초등학교,서울특별시 송파구 올림픽로35길 122,37.5179644,127.1001543
294,서울잠실초등학교,서울특별시 송파구 올림픽로35길 20,37.5201075,127.111310141
295,서울잠현초등학교,서울특별시 송파구 올림픽로37길 109,37.5225856923,127.10477859999999
296,서울신가초등학교,서울특별시 송파구 송이로 75,37.5003769,127.11985790000001
297,서울가주초등학교,서울특별시 송파구 오금로40길 37,37.4965216,127.1293812
298,서울가동초등학교,서울특별시 송파구 중대로20길 47,37.4973198,127.130219
299,서울영풍초등학교,서울특별시 송파구 오금로57길 15,37.4962643,127.14295359999998
300,서울거원초등학교,서울특별시 송파구 양산로2길 26,37.4878297,127.14475790000002
301,서울남천초등학교,서울특별시 송파구 성내천로 207,37.5011739,127.15057150000001
302,서울마천초등학교,서울특별시 송파구 마천로61다길 24,37.4954974,127.1524746
303,서울오륜초등학교,서울특별시 송파구 양재대로 1196,37.5122054,127.13478130000001
304,서울세륜초등학교,서울특별시 송파구 양재대로 1264,37.5183539,127.1341356
305,서울방산초등학교,서울특별시 송파구 오금로27길 42,37.509645500000005,127.12111429999999
306,서울삼전초등학교,서울특별시 송파구 백제고분로28길 19,37.5015071,127.09274520000001
307,서울석촌초등학교,서울특별시 송파구 가락로11길 26,37.5027584,127.10487240000002
308,서울송파초등학교,서울특별시 송파구 백제고분로 400,37.5070869,127.1108763
309,서울오금초등학교,서울특별시 송파구 위례성대로22길 11,37.5091557,127.13179709999999
310,서울거여초등학교,서울특별시 송파구 마천로25길 18,37.5047528,127.1410936
311,서울개롱초등학교,서울특별시 송파구 문정로 211,37.497367700000005,127.1398426
312,서울잠전초등학교,서울특별시 송파구 올림픽로12길 51,37.5071595,127.08420670000001
313,서울풍납초등학교,서울특별시 송파구 풍성로 43,37.53486029999999,127.1174625
314,서울토성초등학교,서울특별시 송파구 풍성로20길 44,37.5316475,127.1155695
315,서울풍성초등학교,서울특별시 송파구 강동대로2길 13,37.5261388,127.1137028
316,서울아주초등학교,서울특별시 송파구 올림픽로4길 59,37.5058275216,127.07576399999999
317,서울버들초등학교,서울특별시 송파구 석촌호수로 81,37.5103926,127.08906770000002
318,서울신천초등학교,서울특별시 송파구 올림픽로 215,37.513786200000006,127.0953838
319,서울선린초등학교,서울특별시 강동구 진황도로61길 29,37.529447,127.14604890000001
320,서울고명초등학교,서울특별시 강동구 고덕로46길 53,37.5530361,127.14681999999999
321,서울묘곡초등학교,서울특별시 강동구 동남로79길 46,37.558454600000005,127.1531803
322,서울강일초등학교,서울특별시 강동구 아리수로98길 24,37.5649609,127.17711170000001
323,서울고덕초등학교,서울특별시 강동구 아리수로82길 42,37.5610786,127.16637659999998
324,서울강덕초등학교,서울특별시 강동구 동남로82길 94-54,37.5589366,127.1607703
325,서울명덕초등학교,서울특별시 강동구 양재대로156길 11,37.5568963,127.14600779999999
326,서울신명초등학교,서울특별시 강동구 명일로24길 33,37.5409425176,127.14998896659999
327,서울길동초등학교,서울특별시 강동구 양재대로116길 69,37.5385062,127.14497407409999
328,서울천동초등학교,서울특별시 강동구 성안로 200,37.5405852,127.1375686
329,서울한산초등학교,서울특별시 강동구 풍성로 261,37.528397600000005,127.14136450000001
330,서울명원초등학교,서울특별시 강동구 명일로 364,37.551224100000006,127.1507304
331,서울대명초등학교,서울특별시 강동구 상암로 271,37.5476037,127.1528696
332,서울고일초등학교,서울특별시 강동구 구천면로93길 20,37.5520581,127.1690875
333,서울상일초등학교,서울특별시 강동구 천호대로 1477,37.5471408,127.17233290000001
334,서울강명초등학교,서울특별시 강동구 상일로 74-1,37.5548237,127.1733624
335,서울성일초등학교,서울특별시 강동구 성내로15길 33,37.5291153,127.12835759999999
336,서울성내초등학교,서울특별시 강동구 성내로3길 19,37.5314221,127.12246540000001
337,서울명일초등학교,서울특별시 강동구 고덕로38길 8,37.5545423636,127.1425695083
338,서울천일초등학교,서울특별시 강동구 구천면로 266,37.5441771,127.1333855
339,서울천호초등학교,서울특별시 강동구 구천면로 310-11,37.547357700000006,127.1364524
340,서울강동초등학교,서울특별시 강동구 상암로14길 77,37.5461063,127.1304605
341,서울선사초등학교,서울특별시 강동구 올림픽로 837,37.555839899999995,127.1284369
342,서울신암초등학교,서울특별시 강동구 올림픽로93길 33-16,37.5497646,127.1243019
343,서울신은초등학교,서울특별시 양천구 신정이펜2로 30,37.5139921,126.8320115
344,서울목원초등학교,서울특별시 양천구 목동중앙로 204,37.5427277,126.8824793
345,서울경인초등학교,서울특별시 양천구 안양천로 1009,37.5328933,126.88633490000002
346,서울서정초등학교,서울특별시 양천구 목동로8길 19,37.523899,126.8671743
347,서울목운초등학교,서울특별시 양천구 목동동로 235,37.526990399999995,126.87301059999999
348,서울계남초등학교,서울특별시 양천구 목동동로2길 54,37.5100874,126.85999939999999
349,서울은정초등학교,서울특별시 양천구 목동남로 85,37.5108159,126.86698529999998
350,서울신서초등학교,서울특별시 양천구 목동서로10길 35,37.52059570000001,126.8625771
351,서울양명초등학교,서울특별시 양천구 중앙로 204,37.516375040999996,126.856634416
352,서울신기초등학교,서울특별시 양천구 신정로 292,37.511016399999995,126.85405149999998
353,서울남명초등학교,서울특별시 양천구 중앙로23길 3,37.5153939,126.8538873
354,서울양목초등학교,서울특별시 양천구 목동로11길 30,37.523650200000006,126.86169640000001
355,서울갈산초등학교,서울특별시 양천구 목동로 31,37.5118348,126.8699978
356,서울강신초등학교,서울특별시 양천구 월정로 280,37.542879299999996,126.8295869
357,서울양화초등학교,서울특별시 양천구 목동중앙북로16길 57,37.5437143,126.8744087
358,서울정목초등학교,서울특별시 양천구 목동중앙로3길 30-10,37.5370581,126.87032109999998
359,서울양원초등학교,서울특별시 양천구 화곡로 16,37.5384029,126.82331809999998
360,서울신원초등학교,서울특별시 양천구 남부순환로58길 32,37.529502799999996,126.8299687
361,서울강서초등학교,서울특별시 양천구 오목로 31,37.5223088,126.8409133
362,서울신강초등학교,서울특별시 양천구 중앙로55길 72,37.5259562,126.84165359999999
363,서울양강초등학교,서울특별시 양천구 오목로 101,37.5240784,126.84799950000001
364,서울신남초등학교,서울특별시 양천구 절골8길 33,37.5162714,126.844269
365,서울강월초등학교,서울특별시 양천구 신월로 97,37.515959499999994,126.83416229999999
366,서울목동초등학교,서울특별시 양천구 목동동로12길 12,37.522482200000006,126.87215970000001
367,서울신목초등학교,서울특별시 양천구 신목로5길 11-6,37.5169159,126.87268459999999
368,서울지향초등학교,서울특별시 양천구 신정로11길 74,37.5127825,126.8371342
369,서울장수초등학교,서울특별시 양천구 신정로13가길 30,37.512868,126.8450848
370,서울양동초등학교,서울특별시 양천구 오목로23길 24,37.526006,126.8511587
371,서울월촌초등학교,서울특별시 양천구 목동중앙로 132,37.5402367,126.8764371
372,서울영도초등학교,서울특별시 양천구 목동중앙로 70,37.5357019,126.87162579999999
373,서울화일초등학교,서울특별시 강서구 까치산로10길 70,37.5403602,126.84740759999998
374,서울우장초등학교,서울특별시 강서구 화곡로 263,37.5492011,126.8460773
375,서울신정초등학교,서울특별시 강서구 곰달래로31가길 27,37.5327438,126.85245590000001
376,서울신곡초등학교,서울특별시 강서구 등촌로13자길 42-14,37.5390734,126.8556963
377,서울등마초등학교,서울특별시 강서구 등촌로35길 12,37.5420258,126.86163379999999
378,서울등양초등학교,서울특별시 강서구 강서로56나길 140,37.5648029,126.84466599999999
379,서울염경초등학교,서울특별시 강서구 양천로69길 49,37.5548065,126.8712574
380,서울염창초등학교,서울특별시 강서구 양천로 646-28,37.5529516,126.86774609999999
381,서울염강초등학교,서울특별시 강서구 허준로 221-22,37.5611473,126.8644193
382,서울치현초등학교,서울특별시 강서구 방화대로47길 43,37.5755781,126.81465379999999
383,서울삼정초등학교,서울특별시 강서구 금낭화로 222,37.5803891,126.81084709999999
384,서울정곡초등학교,서울특별시 강서구 방화대로50길 22,37.5769549,126.8189082
385,서울가곡초등학교,서울특별시 강서구 공항대로36길 74,37.5557076033,126.83610183
386,서울발산초등학교,서울특별시 강서구 강서로45길 113,37.5503201,126.83103829999999
387,서울양천초등학교,서울특별시 강서구 양천로 329,37.5701684,126.8395913
388,서울탑산초등학교,서울특별시 강서구 허준로 109,37.5666739,126.85218959999999
389,서울가양초등학교,서울특별시 강서구 허준로 186,37.56170039999999,126.85864369999999
390,서울송정초등학교,서울특별시 강서구 공항대로3길 18,37.5627589,126.81102290000001
391,서울내발산초등학교,서울특별시 강서구 강서로46길 23,37.551248,126.83770049999998
392,서울등촌초등학교,서울특별시 강서구 등촌로39길 71,37.547495500000004,126.8577618
393,서울백석초등학교,서울특별시 강서구 공항대로 491,37.5534229,126.86219380000001
394,서울송화초등학교,서울특별시 강서구 방화대로34길 2,37.568274100000004,126.8174653
395,서울개화초등학교,서울특별시 강서구 양천로 11,37.5736852,126.80466409999998
396,서울방화초등학교,서울특별시 강서구 양천로6길 92,37.5687036382,126.807498848
397,서울염동초등학교,서울특별시 강서구 양천로73길 17,37.5521222,126.872373
398,서울화곡초등학교,서울특별시 강서구 초록마을로 28,37.5432456,126.8459511
399,서울월정초등학교,서울특별시 강서구 월정로 176,37.5347268,126.83605949999999
400,서울신월초등학교,서울특별시 강서구 강서로31길 48,37.54010170000001,126.839099
401,서울등서초등학교,서울특별시 강서구 화곡로58길 86,37.551827200000005,126.85497190000001
402,서울등명초등학교,서울특별시 강서구 강서로56나길 34,37.560624100000005,126.8425361
403,서울등현초등학교,서울특별시 강서구 화곡로65길 124,37.56136970000001,126.84803670000001
404,서울등원초등학교,서울특별시 강서구 화곡로65길 90,37.560322799999994,126.8500834
405,서울수명초등학교,서울특별시 강서구 수명로1길 84,37.5527743821,126.8238445
406,유석초등학교,서울특별시 강서구 화곡로69길 9,37.5608059,126.8537249
407,서울우면초등학교,서울특별시 서초구 태봉로 59,37.4647093873,127.02378940000001
408,서울교육대학교부설초등학교,서울특별시 서초구 서초중앙로 96,37.4899286,127.01586529999999
409,서울신중초등학교,서울특별시 서초구 남부순환로317길 15,37.4801745,127.0098006
410,서울서원초등학교,서울특별시 서초구 고무래로 63,37.5027958,127.01513770000001
411,서울원촌초등학교,서울특별시 서초구 사평대로45길 26,37.5061857,127.01246119999999
412,서울잠원초등학교,서울특별시 서초구 신반포로16길 15-25,37.5018585469,126.9980966
413,서울반원초등학교,서울특별시 서초구 잠원로3길 28,37.51020820000001,127.00390230000001
414,서울매헌초등학교,서울특별시 서초구 언남길 8,37.471067,127.04206979999998
415,서울반포초등학교,서울특별시 서초구 신반포로 55-4,37.5027416,126.9910009
416,서울방일초등학교,서울특별시 서초구 방배로18길 52,37.4853656,126.9982024
417,서울이수초등학교,서울특별시 서초구 방배천로4길 23,37.4783196,126.98456499999999
418,서울서래초등학교,서울특별시 서초구 방배로 260,37.4963529,126.9898009
419,서울방배초등학교,서울특별시 서초구 방배중앙로13길 26,37.4871653,126.9874257
420,서울방현초등학교,서울특별시 서초구 효령로4길 58,37.4763718,126.99015
421,서울서초초등학교,서울특별시 서초구 서운로 178,37.499331,127.02422959999998
422,서울서이초등학교,서울특별시 서초구 서운로 35,37.4913032,127.0259479
423,서울서일초등학교,서울특별시 서초구 남부순환로339길 38,37.485105600000004,127.0222041
424,서울원명초등학교,서울특별시 서초구 고무래로 90-6,37.500647,127.01656940000001
425,서울양재초등학교,서울특별시 서초구 바우뫼로18길 14,37.473765,127.0316178
426,서울우암초등학교,서울특별시 서초구 바우뫼로7길 38,37.4721905,127.0239065
427,서울신동초등학교,서울특별시 서초구 나루터로 15,37.5170464,127.0116439
428,계성초등학교,서울특별시 서초구 신반포로19길 23,37.5044669,126.99647320000001
429,서울봉은초등학교,서울특별시 강남구 학동로 610,37.520152100000004,127.06098109999999
430,서울대왕초등학교,서울특별시 강남구 헌릉로618길 8,37.464199799999996,127.10561840000001
431,서울수서초등학교,서울특별시 강남구 광평로51길 46,37.4909843,127.1015496
432,서울대모초등학교,서울특별시 강남구 광평로20길 27,37.4814341,127.08651929999999
433,서울대진초등학교,서울특별시 강남구 개포로109길 74,37.497027200000005,127.07797649999999
434,서울양전초등학교,서울특별시 강남구 개포로 513,37.4903657,127.06947779999999
435,서울구룡초등학교,서울특별시 강남구 개포로 263,37.4807232,127.051891
436,서울언주초등학교,서울특별시 강남구 남부순환로363길 19,37.4862841,127.03678090000001
437,서울대치초등학교,서울특별시 강남구 양재천로 363,37.490982200000005,127.06245929999999
438,서울도곡초등학교,서울특별시 강남구 선릉로64길 33,37.4993211,127.054928
439,서울대도초등학교,서울특별시 강남구 선릉로 209,37.4928283,127.05314840000001
440,서울개일초등학교,서울특별시 강남구 개포로 401,37.486154299999995,127.057776
441,서울논현초등학교,서울특별시 강남구 강남대로120길 33,37.5081699,127.0260317
442,서울학동초등학교,서울특별시 강남구 선릉로115길 42,37.5125348,127.03970819999999
443,서울대곡초등학교,서울특별시 강남구 남부순환로 3022,37.4943975,127.0646926
444,서울대현초등학교,서울특별시 강남구 역삼로98길 16,37.5038985,127.06364350000001
445,서울삼릉초등학교,서울특별시 강남구 봉은사로63길 22,37.5131023,127.0469142
446,서울왕북초등학교,서울특별시 강남구 광평로31길 74,37.4864123,127.0860392
447,서울신구초등학교,서울특별시 강남구 압구정로18길 28,37.52336029999999,127.0240264
448,서울압구정초등학교,서울특별시 강남구 압구정로39길 29,37.5316708,127.03116499999999
449,서울도성초등학교,서울특별시 강남구 역삼로 313,37.5013049,127.04893259999999
450,서울역삼초등학교,서울특별시 강남구 강남대로66길 21,37.492917999999996,127.03285430000001
451,서울대청초등학교,서울특별시 강남구 양재대로55길 28,37.4931172,127.08757460000001
452,서울영희초등학교,서울특별시 강남구 일원로 21,37.492249900000004,127.08087590000001
453,서울일원초등학교,서울특별시 강남구 영동대로4길 20,37.489835299999996,127.07629070000002
454,서울언북초등학교,서울특별시 강남구 삼성로135길 42,37.519960299999994,127.0451
455,서울청담초등학교,서울특별시 강남구 압구정로71길 9,37.527976200000005,127.04527009999998
456,서울포이초등학교,서울특별시 강남구 개포로22길 87,37.475620899999996,127.05208959999999
457,서울신상도초등학교,서울특별시 동작구 장승배기로 14,37.5004006,126.94408090000002
458,서울강남초등학교,서울특별시 동작구 강남초등길 15,37.506079799999995,126.9535841
459,서울노량진초등학교,서울특별시 동작구 장승배기로 160,37.5113579,126.94092909999999
460,서울본동초등학교,서울특별시 동작구 노량진로26길 16-40,37.5100908,126.95373629999999
461,서울은로초등학교,서울특별시 동작구 서달로 115,37.5031946,126.96021470000001
462,서울동작초등학교,서울특별시 동작구 동작대로29길 214,37.4942206,126.97707920000002
463,서울삼일초등학교,서울특별시 동작구 사당로23나길 27,37.488235499999995,126.97510159999999
464,서울행림초등학교,서울특별시 동작구 솔밭로 47,37.4828060747,126.96496382069999
465,서울신남성초등학교,서울특별시 동작구 사당로 146,37.4886163,126.96516909999998
466,서울영화초등학교,서울특별시 동작구 등용로8길 3,37.5089070338,126.9329751321
467,서울신길초등학교,서울특별시 동작구 알마타길 16,37.5102562,126.9265808
468,서울대림초등학교,서울특별시 동작구 대방동1길 22,37.5005994,126.9253563
469,서울영본초등학교,서울특별시 동작구 만양로12가길 69,37.510502200000005,126.94853470000001
470,서울남성초등학교,서울특별시 동작구 사당로23길 57-14,37.484441600000004,126.9758314
471,서울남사초등학교,서울특별시 동작구 동작대로13길 22,37.4822359,126.9785565
472,서울상도초등학교,서울특별시 동작구 성대로21길 62,37.4997141,126.93735579999999
473,서울보라매초등학교,서울특별시 동작구 여의대방로16길 30,37.495795799999996,126.916097
474,서울문창초등학교,서울특별시 동작구 신대방2길 14,37.4889831201,126.9148424622
475,서울흑석초등학교,서울특별시 동작구 현충로 87,37.5084802,126.96503670000001
476,중앙대학교사범대학부속초등학교,서울특별시 동작구 서달로 135,37.5053803,126.960245
477,서울원신초등학교,서울특별시 관악구 광신길 177,37.467048,126.92742390000001
478,서울남부초등학교,서울특별시 관악구 남부순환로163길 14,37.48504129999999,126.9221169
479,서울신우초등학교,서울특별시 관악구 호암로 498,37.462621500000004,126.93233529999999
480,서울신림초등학교,서울특별시 관악구 문성로28길 31,37.4771503,126.92729990000001
481,서울조원초등학교,서울특별시 관악구 조원로 67,37.4841778,126.9094507
482,서울난곡초등학교,서울특별시 관악구 난곡로35길 102,37.469240500000005,126.91666409999998
483,서울삼성초등학교,서울특별시 관악구 대학7길 52,37.467816299999996,126.94097620000001
484,서울미성초등학교,서울특별시 관악구 문성로 79,37.4779314,126.91268059999999
485,서울봉현초등학교,서울특별시 관악구 성현로 117,37.4910197,126.95561709999998
486,서울청룡초등학교,서울특별시 관악구 관악로5길 61,37.4756972,126.9512057
487,서울봉천초등학교,서울특별시 관악구 행운1라길 17,37.4829254,126.95783629999998
488,서울원당초등학교,서울특별시 관악구 봉천로 505,37.48112329999999,126.9560764
489,서울사당초등학교,서울특별시 관악구 남현4길 51,37.4736353,126.9740756
490,서울인헌초등학교,서울특별시 관악구 낙성대로 23,37.4767532754,126.9598656241
491,서울당곡초등학교,서울특별시 관악구 보라매로2길 23,37.490000099999996,126.9298977
492,서울신봉초등학교,서울특별시 관악구 양녕로6나길 1,37.485474700000005,126.9492175
493,서울구암초등학교,서울특별시 관악구 구암길 1,37.4894968,126.94687820000001
494,서울은천초등학교,서울특별시 관악구 은천로 69,37.486859100000004,126.94290330000001
495,서울관악초등학교,서울특별시 관악구 청룡4길 49,37.4808067,126.9428902
496,서울난우초등학교,서울특별시 관악구 난우길 40,37.476937899999996,126.9178675
497,서울난향초등학교,서울특별시 관악구 난향길 9,37.4624143,126.9180741
498,서울신성초등학교,서울특별시 관악구 신림로 114,37.4717967,126.937152
499,서울행당초등학교,서울특별시 성동구 고산자로8길 6,37.556443200000004,127.034673
500,서울동호초등학교,서울특별시 성동구 동호로5길 133,37.5464613636,127.0100328
501,서울경동초등학교,서울특별시 성동구 성수일로 34,37.5436794,127.0502832
502,서울경수초등학교,서울특별시 성동구 뚝섬로13길 22,37.5404360421,127.0580689191
503,서울금북초등학교,서울특별시 성동구 행당로1길 13,37.557465,127.0235067
504,서울금호초등학교,서울특별시 성동구 무수막길 69,37.552203600000006,127.02032759999999
505,서울옥수초등학교,서울특별시 성동구 금호로1길 25,37.545983899999996,127.021758
506,서울금옥초등학교,서울특별시 성동구 독서당로 251,37.546060100000005,127.01748500000001
507,서울동명초등학교,서울특별시 성동구 마장로29길 29,37.5681237525,127.03510779620001
508,서울마장초등학교,서울특별시 성동구 마장로35나길 31,37.5682297,127.04220500000001
509,서울사근초등학교,서울특별시 성동구 사근동11길 16,37.562893200000005,127.04781740000001
510,서울경일초등학교,서울특별시 성동구 뚝섬로 332,37.5403883,127.0468669
511,서울성수초등학교,서울특별시 성동구 아차산로17길 21,37.544058,127.06315729999999
512,서울송원초등학교,서울특별시 성동구 동일로43길 9,37.5542158,127.06946880000001
513,서울옥정초등학교,서울특별시 성동구 한림말길 43,37.5418992,127.01567479999999
514,서울용답초등학교,서울특별시 성동구 용답25길 1,37.5607301,127.0535393
515,서울응봉초등학교,서울특별시 성동구 독서당로62길 28,37.5502519492,127.0338274316
516,서울무학초등학교,서울특별시 성동구 무학봉15길 21,37.5632029,127.029532
517,서울행현초등학교,서울특별시 성동구 행당로 95,37.5575664,127.0293584
518,한양초등학교,서울특별시 성동구 살곶이길 208,37.5577626,127.05061640000001
519,서울양진초등학교,서울특별시 광진구 워커힐로 32,37.5444966,127.09832490000001
520,서울광남초등학교,서울특별시 광진구 아차산로70길 35,37.5408154,127.10093459999999
521,서울광장초등학교,서울특별시 광진구 광장로1길 27,37.548446000000006,127.10094040000001
522,서울동의초등학교,서울특별시 광진구 영화사로 111,37.553363899999994,127.09880109999999
523,서울광진초등학교,서울특별시 광진구 자양로40길 41,37.5475549,127.0913267
524,서울구남초등학교,서울특별시 광진구 구의강변로 69,37.5369552,127.09225819999999
525,서울장안초등학교,서울특별시 광진구 군자로 74,37.550187,127.07235120000001
526,서울자양초등학교,서울특별시 광진구 아차산로44길 26,37.5369104,127.079457
527,서울동자초등학교,서울특별시 광진구 뚝섬로 561,37.5346695,127.072115
528,서울신양초등학교,서울특별시 광진구 능동로 42,37.5344735,127.06954109999998
529,서울신자초등학교,서울특별시 광진구 뚝섬로46길 64,37.530094,127.0754494
530,서울성자초등학교,서울특별시 광진구 뚝섬로56길 7,37.531376200000004,127.08330600000001
531,서울양남초등학교,서울특별시 광진구 뚝섬로64길 71,37.530792600000005,127.08966059999999
532,서울용마초등학교,서울특별시 광진구 천호대로113길 10,37.5580253,127.08428310000001
533,서울중광초등학교,서울특별시 광진구 긴고랑로13길 59,37.5651174,127.08235390000002
534,서울중마초등학교,서울특별시 광진구 동일로72길 43,37.5658572,127.07958059999999
535,서울용곡초등학교,서울특별시 광진구 용마산로22길 82,37.5667073,127.08880359999999
536,서울화양초등학교,서울특별시 광진구 군자로 9,37.5442711,127.0710885
537,서울구의초등학교,서울특별시 광진구 광나루로30길 49,37.5429178,127.0799578
538,세종초등학교,서울특별시 광진구 군자로 114,37.5530201912,127.0728767475
539,경복초등학교,서울특별시 광진구 천호대로130길 58,37.5498296,127.08679289770001
540,성동초등학교,서울특별시 광진구 자양로4길 63,37.5332806475,127.0892809127
541,서울돈암초등학교,서울특별시 성북구 동소문로13길 38,37.593714399999996,127.0131031296
542,서울정덕초등학교,서울특별시 성북구 아리랑로 63,37.5979453,127.0133571
543,서울삼선초등학교,서울특별시 성북구 보문로29길 106,37.5861798,127.01251950000001
544,서울안암초등학교,서울특별시 성북구 고려대로7가길 39(안암동2가),37.587151899999995,127.022577
545,서울동신초등학교,서울특별시 성북구 보문사길 50,37.5828688,127.01687920000002
546,서울숭덕초등학교,서울특별시 성북구 정릉로 279,37.6039265,127.013379
547,서울길원초등학교,서울특별시 성북구 길음로15길 55(길음동),37.608901200000005,127.01673590000001
548,서울숭곡초등학교,서울특별시 성북구 종암로40길 30,37.6084672,127.03271709999999
549,서울장월초등학교,서울특별시 성북구 한천로101길 66,37.62164,127.04716280000001
550,서울월곡초등학교,서울특별시 성북구 장월로3길 42,37.6098232,127.0464227
551,서울길음초등학교,서울특별시 성북구 길음로 142,37.613887299999995,127.01702820000001
552,서울미아초등학교,서울특별시 성북구 삼양로 77,37.610514200000004,127.02152720000001
553,서울개운초등학교,서울특별시 성북구 정릉로48길 52,37.60167620000001,127.0275455
554,서울석계초등학교,서울특별시 성북구 한천로58길 273,37.60879570000001,127.0697429
555,서울석관초등학교,서울특별시 성북구 돌곶이로22길 21,37.6108859,127.0587469
556,서울성북초등학교,서울특별시 성북구 성북로 102-10,37.5940523576,126.99877709649999
557,서울장위초등학교,서울특별시 성북구 장월로8가길 41,37.6118041,127.04992379999999
558,서울장곡초등학교,서울특별시 성북구 장월로23길 16,37.616702399999994,127.0479449
559,서울정수초등학교,서울특별시 성북구 정릉로24길 58,37.60383579999999,127.0076054
560,서울정릉초등학교,서울특별시 성북구 솔샘로25가길 8,37.619640600000004,127.00522120000001
561,서울청덕초등학교,서울특별시 성북구 정릉로9라길 11,37.6120317,127.0003392
562,서울일신초등학교,서울특별시 성북구 월곡로 74,37.598358000000005,127.0403502
563,서울숭례초등학교,서울특별시 성북구 종암로5길 14,37.594671399999996,127.0351047
564,서울숭인초등학교,서울특별시 성북구 오패산로16길 37,37.6086811,127.0383578
565,성신초등학교,서울특별시 성북구 북악산로 918,37.593895102800005,127.0232532327
566,우촌초등학교,서울특별시 성북구 성북로4길 52-1,37.5956079,127.01176799999999
567,대광초등학교,서울특별시 성북구 안암로 5,37.579074600000006,127.0235617
568,광운초등학교,서울특별시 성북구 한천로 693,37.61858370000001,127.05470690000001
569,매원초등학교,서울특별시 성북구 북악산로 870,37.59750510000001,127.01990159999998
570,서울번동초등학교,서울특별시 강북구 오현로 204,37.628861799999996,127.04048600000002
571,서울오현초등학교,서울특별시 강북구 월계로 221,37.6233407,127.0466629
572,서울삼양초등학교,서울특별시 강북구 삼양로49길 17,37.6236198,127.01633590000002
573,서울삼각산초등학교,서울특별시 강북구 삼양로19길 141,37.6161958,127.0146577
574,서울송천초등학교,서울특별시 강북구 삼양로20길 29,37.615799100000004,127.0234085
575,서울송중초등학교,서울특별시 강북구 오현로 9,37.617149600000005,127.03148529999999
576,서울화계초등학교,서울특별시 강북구 솔매로50가길 25,37.6237383,127.02900729999999
577,서울미양초등학교,서울특별시 강북구 솔샘로 195,37.6214401,127.0134047
578,서울수송초등학교,서울특별시 강북구 한천로124길 14,37.6368875,127.03323119999999
579,서울수유초등학교,서울특별시 강북구 삼양로74길 39,37.6309311,127.0202469
580,서울인수초등학교,서울특별시 강북구 인수봉로 269,37.642871299999996,127.0095645
581,서울우이초등학교,서울특별시 강북구 삼양로99길 36,37.6382919,127.01490179999999
582,서울유현초등학교,서울특별시 강북구 인수봉로37길 24,37.631794,127.01191850000001
583,영훈초등학교,서울특별시 강북구 도봉로13가길 19,37.613765,127.0278071
584,광일초등학교,부산광역시 중구 중구로 74,35.10372520000001,129.029845
585,보수초등학교,부산광역시 중구 흑교로 74,35.1060704517,129.024219
586,봉래초등학교,부산광역시 중구 대영로226번길 15,35.111481299999994,129.0361247
587,남성초등학교,부산광역시 중구 샘길 14,35.1041108043,129.0323863767
588,토성초등학교,부산광역시 서구 구덕로134번길 45,35.098643,129.0213507
589,부민초등학교,부산광역시 서구 고운들로 12,35.1059701477,129.019922377
590,화랑초등학교,부산광역시 서구 대영로86번길 56,35.108570799999995,129.0210643
591,남부민초등학교,부산광역시 서구 천마로 153,35.0894180942,129.023333846
592,동신초등학교,부산광역시 서구 대영로85번길 81-19,35.113860045500005,129.017590305
593,구덕초등학교,부산광역시 서구 보수대로 312,35.1204146238,129.0125412
594,대신초등학교,부산광역시 서구 대신로 63,35.11618072,129.011782098
595,아미초등학교,부산광역시 서구 해돋이로 241,35.0987383903,129.016068386
596,송도초등학교,부산광역시 서구 충무대로 25,35.0782403,129.01559369999998
597,천마초등학교,부산광역시 서구 천해로7번길 38,35.0816591587,129.0182257
598,부산알로이시오초등학교,부산광역시 서구 천해로13번길 16-9,35.0833163179,129.01635089
599,영도초등학교,부산광역시 영도구 꿈나무길 41,35.0901262314,129.046213467
600,신선초등학교,부산광역시 영도구 산정길 17,35.0836179895,129.04759885200002
601,절영초등학교,부산광역시 영도구 함지로 37,35.0728885,129.063044652
602,중리초등학교,부산광역시 영도구 와치로 286,35.0742008621,129.070194733
603,봉삼초등학교,부산광역시 영도구 함지로79번길 39,35.0747866,129.06361949700002
604,상리초등학교,부산광역시 영도구 상리로 38,35.0839967,129.06707757
605,대평초등학교,부산광역시 영도구 절영로 82,35.08770139999999,129.0382812
606,태종대초등학교,부산광역시 영도구 태종로802번길 38,35.0658506192,129.079146898
607,동삼초등학교,부산광역시 영도구 태종로 610,35.0798259014,129.07346777700002
608,대교초등학교,부산광역시 영도구 봉래나루로246번길 19,35.09469394,129.045753076
609,남항초등학교,부산광역시 영도구 남항새싹길 55,35.0833033,129.0433794
610,청동초등학교,부산광역시 영도구 태종로422번길 51,35.0881201583,129.067353933
611,청학초등학교,부산광역시 영도구 청학로 49,35.0932030129,129.059504611
612,봉학초등학교,부산광역시 영도구 태종로 242,35.0955357489,129.055015147
613,보림초등학교,부산광역시 사하구 장림로161번길 20,35.084157399999995,128.96750600000001
614,장림초등학교,부산광역시 사하구 장림번영로103번길 10,35.0818448,128.9761152
615,몰운대초등학교,부산광역시 사하구 다대낙조2길 110,35.0550489706,128.96312929200002
616,다대초등학교,부산광역시 사하구 다대로 499,35.0596808439,128.97579605200002
617,다선초등학교,부산광역시 사하구 다송로 57,35.0630015969,128.985679149
618,괴정초등학교,부산광역시 사하구 낙동대로 152,35.1037632669,128.999756483
619,서천초등학교,부산광역시 사하구 감천로 105번길 10(감천동),35.0887431176,129.00384979999998
620,감천초등학교,부산광역시 사하구 원양로 368-2,35.0825743168,129.00719383700002
621,옥천초등학교,부산광역시 사하구 사하로 134,35.0938853141,128.993690805
622,승학초등학교,부산광역시 사하구 낙동대로135번길 55,35.1021441085,129.00328735
623,사하초등학교,부산광역시 사하구 낙동대로 266,35.099973600000006,128.98689867
624,사남초등학교,부산광역시 사하구 장평로 390,35.0960640975,128.983050892
625,구평초등학교,부산광역시 사하구 사하로 9,35.0866191511,128.989023205
626,중현초등학교,부산광역시 사하구 다대낙조2길 8,35.051123424800004,128.966463271
627,응봉초등학교,부산광역시 사하구 다대낙조2길 26,35.052857,128.965092892
628,다송초등학교,부산광역시 사하구 다대로381번길 17,35.069326121799996,128.979838725
629,낙동초등학교,부산광역시 사하구 제석로 41,35.1054075,128.972347953
630,당리초등학교,부산광역시 사하구 다대로22번길 12,35.099911299999995,128.975692071
631,사동초등학교,부산광역시 사하구 승학로 129-2,35.1045028299,128.980623485
632,신촌초등학교,부산광역시 사하구 다대로 135,35.090374631100005,128.978049403
633,신남초등학교,부산광역시 사하구 비봉로 88,35.0983561083,128.961601379
634,신평초등학교,부산광역시 사하구 장평로299번안길 19,35.0943415826,128.971526945
635,효림초등학교,부산광역시 사하구 장평로 106,35.076006899999996,128.9738165
636,을숙도초등학교,부산광역시 사하구 낙동대로 581,35.115545704,128.961245715
637,하단초등학교,부산광역시 사하구 하신중앙로 321,35.1054586854,128.964864071
638,하남초등학교,부산광역시 사하구 하신번영로 186,35.0995304,128.960068051
639,범일초등학교,부산광역시 동구 증산서로 55,35.1395711632,129.049653428
640,좌성초등학교,부산광역시 동구 증산동로 59,35.1371892478,129.051950116
641,성남초등학교,부산광역시 동구 범일로53번길 14,35.1351926,129.058473238
642,동일중앙초등학교,부산광역시 동구 구봉로 46,35.124515416,129.03677182799998
643,수정초등학교,부산광역시 동구 진성로 29,35.131264983200005,129.046729135
644,수성초등학교,부산광역시 동구 망양로 807,35.134524,129.04272182399998
645,초량초등학교,부산광역시 동구 초량상로 49,35.1157129342,129.036333302
646,가남초등학교,부산광역시 부산진구 엄광로 325,35.1545168423,129.04406364
647,부산진초등학교,부산광역시 부산진구 범천로 30,35.1499919148,129.0562654
648,부전초등학교,부산광역시 부산진구 부전로65번길 25,35.1549518,129.053111602
649,동양초등학교,부산광역시 부산진구 백양산로 99,35.1766933056,129.030768
650,부암초등학교,부산광역시 부산진구 신천대로263번길 26,35.1650691,129.0489254
651,개림초등학교,부산광역시 부산진구 백양대로320번길 40,35.156259399999996,129.0159777
652,가평초등학교,부산광역시 부산진구 가야대로482번길 87,35.1488529,129.025766256
653,가산초등학교,부산광역시 부산진구 엄광로 182,35.1475628796,129.034462786
654,가야초등학교,부산광역시 부산진구 대학로 22,35.1537253192,129.036270899
655,개원초등학교,부산광역시 부산진구 백양관문로77번길 17,35.164575899999996,129.0282367
656,개포초등학교,부산광역시 부산진구 백양대로208번길 9,35.1588310603,129.0265888
657,개금초등학교,부산광역시 부산진구 가야대로443번길 25-10,35.1545236209,129.019594801
658,개화초등학교,부산광역시 부산진구 개금본동로66번길 12-12,35.158574867,129.020700114
659,주원초등학교,부산광역시 부산진구 복지로 71,35.1472579999,129.02080642200002
660,주례초등학교,부산광역시 부산진구 진사로77번길 61,35.144554686599996,129.019497617
661,당감초등학교,부산광역시 부산진구 당감로 22-5,35.164337599999996,129.0408295
662,당평초등학교,부산광역시 부산진구 백양대로136번길 26,35.1614361399,129.03517264299998
663,동평초등학교,부산광역시 부산진구 당감서로65번길 31,35.167709748200004,129.0352077
664,동원초등학교,부산광역시 부산진구 백양산로 43,35.173201323,129.0311777
665,성지초등학교,부산광역시 부산진구 시민공원로 62,35.1644152,129.0569618
666,성서초등학교,부산광역시 부산진구 중앙번영로 25,35.1450512275,129.062337669
667,선암초등학교,부산광역시 부산진구 엄광로 412,35.1493673639,129.04887656
668,양동초등학교,부산광역시 부산진구 황령산로605번길 35-10,35.1715208957,129.081044375
669,양정초등학교,부산광역시 부산진구 중앙대로 941,35.1740439577,129.071806139
670,양성초등학교,부산광역시 부산진구 양성로 34,35.1703567034,129.06609352
671,연지초등학교,부산광역시 부산진구 연지로 29,35.172709988,129.052135765
672,성전초등학교,부산광역시 부산진구 전포대로298번길 15,35.1639899244,129.066362597
673,성북초등학교,부산광역시 부산진구 황령대로 79,35.1515174,129.0677358
674,전포초등학교,부산광역시 부산진구 전포대로 255,35.159474829299995,129.065216875
675,연학초등학교,부산광역시 부산진구 초읍천로43번길 10,35.1766083816,129.046280617
676,초읍초등학교,부산광역시 부산진구 성지로104번길 26,35.1807456887,129.0539727
677,동성초등학교,부산광역시 부산진구 동성로 26,35.1526862629,129.069500011
678,오륙도초등학교,부산광역시 남구 오륙도로 57,35.1042372573,129.116185739
679,용문초등학교,부산광역시 남구 신선로 542,35.130676838,129.108142704
680,운산초등학교,부산광역시 남구 용호로269번길 89,35.110205262,129.115225882
681,동천초등학교,부산광역시 남구 석포로26번길 22,35.1216141325,129.083173872
682,동항초등학교,부산광역시 남구 우암로 42,35.114016531,129.082905821
683,대남초등학교,부산광역시 남구 황령대로353번길 9-55,35.1489642,129.0972482
684,대연초등학교,부산광역시 남구 진남로18번길 11,35.1372382116,129.092286694
685,대천초등학교,부산광역시 남구 조각공원로 19,35.1291999179,129.101031764
686,석포초등학교,부산광역시 남구 석포로86번길 76,35.126565495,129.091833695
687,문현초등학교,부산광역시 남구 고동골로 86-13,35.1453244525,129.07293848
688,성동초등학교,부산광역시 남구 전포대로68번길 27,35.1438327972,129.069104635
689,용당초등학교,부산광역시 남구 신선로 341,35.1172263785,129.09451659
690,분포초등학교,부산광역시 남구 분포로 41,35.1289134449,129.113976633
691,용호초등학교,부산광역시 남구 용호로42번길 94,35.122479686700004,129.108984333
692,용산초등학교,부산광역시 남구 동명로176번길 55,35.1165382805,129.1160696
693,백운초등학교,부산광역시 남구 동명로 76,35.1183079388,129.105529455
694,신연초등학교,부산광역시 남구 유엔로25번길 66,35.129284035,129.077972443
695,우암초등학교,부산광역시 남구 우암로 190-19,35.1253426079,129.076380554
696,성천초등학교,부산광역시 남구 장고개로 64-41,35.1308278104,129.072233017
697,교동초등학교,부산광역시 동래구 시실로 73-13,35.2154566502,129.092175601
698,내성초등학교,부산광역시 동래구 동래로 173,35.2046916044,129.089980164
699,낙민초등학교,부산광역시 동래구 충렬대로272번길 34,35.1994246953,129.08834331100002
700,온천초등학교,부산광역시 동래구 충렬대로107번길 124,35.212556143,129.073676129
701,안진초등학교,부산광역시 동래구 안남로 63,35.1947468,129.099192646
702,예원초등학교,부산광역시 동래구 사직로 78,35.1958815304,129.05739089
703,안민초등학교,부산광역시 동래구 온천천로381번길 19,35.194028219,129.09379066
704,명륜초등학교,부산광역시 동래구 동래로 91,35.2080345,129.083271665
705,명장초등학교,부산광역시 동래구 복천로 121,35.2081895924,129.096561052
706,안락초등학교,부산광역시 동래구 명안로53번길 22,35.2020868,129.103081618
707,명동초등학교,부산광역시 동래구 명장로63번길 60-5,35.2075929228,129.1062241
708,명서초등학교,부산광역시 동래구 명서로 121,35.211782799999995,129.1010614
709,여고초등학교,부산광역시 동래구 여고로63번가길 12,35.1979015,129.068960575
710,사직초등학교,부산광역시 동래구 쇠미로81번길 7,35.2008037,129.054170683
711,수안초등학교,부산광역시 동래구 온천천로 215,35.200480208,129.08042614200002
712,안남초등학교,부산광역시 동래구 연안로 46,35.1916595,129.107706318
713,충렬초등학교,부산광역시 동래구 안락로125번길 22,35.2004180339,129.111700617
714,내산초등학교,부산광역시 동래구 중앙대로1335번길 38,35.2073580131,129.076635781
715,미남초등학교,부산광역시 동래구 충렬대로100번길 83,35.2036871,129.0728011
716,달북초등학교,부산광역시 동래구 쇠미로 131,35.2035727544,129.05999596200002
717,금강초등학교,부산광역시 동래구 사직북로28번길 125,35.203134941799995,129.064113052
718,혜화초등학교,부산광역시 동래구 명장로99번길 25,35.2022610009,129.11329417
719,금빛초등학교,부산광역시 금정구 소정로 31,35.2279772724,129.080359329
720,두실초등학교,부산광역시 금정구 중앙대로1893번길 33,35.2531581054,129.08940032
721,부곡초등학교,부산광역시 금정구 기찰로22번길 15,35.2341134038,129.093252221
722,현곡초등학교,부산광역시 금정구 동부곡로27번라길 20,35.2269157901,129.096748523
723,금양초등학교,부산광역시 금정구 중앙대로 1755,35.241235658499996,129.0920128
724,금샘초등학교,부산광역시 금정구 금샘로 525,35.2690591817,129.08389276100002
725,공덕초등학교,부산광역시 금정구 대두로 2,35.296492791599995,129.110945257
726,금성초등학교,부산광역시 금정구 중리1길 15,35.2511772876,129.057759329
727,구서초등학교,부산광역시 금정구 구서중앙로 35,35.2542028449,129.0871404
728,남산초등학교,부산광역시 금정구 금강로 614,35.2621408588,129.089182701
729,장서초등학교,부산광역시 금정구 금강로453번길 26-7,35.2480494029,129.085490305
730,동현초등학교,부산광역시 금정구 동현로 36,35.2220212959,129.092761441
731,금사초등학교,부산광역시 금정구 금사로57번길 24,35.2189210691,129.109592814
732,서곡초등학교,부산광역시 금정구 윤산로 279,35.2204959528,129.104850104
733,동상초등학교,부산광역시 금정구 옥봉로 5,35.2113001795,129.1069492
734,서동초등학교,부산광역시 금정구 동현로 147,35.2191131598,129.09688157600002
735,서명초등학교,부산광역시 금정구 명서로 48,35.2151654384,129.094632189
736,장전초등학교,부산광역시 금정구 수림로 90,35.2413739273,129.082757794
737,금정초등학교,부산광역시 금정구 식물원로44번길 46,35.2278204,129.08465420000002
738,청룡초등학교,부산광역시 금정구 팔송로 6,35.2727947526,129.091755124
739,동래초등학교,부산광역시 금정구 체육공원로44번길 26,35.247107434600004,129.09848119
740,부산교육대학교부설초등학교,부산광역시 연제구 교대로 24,35.194937085,129.077232871
741,거제초등학교,부산광역시 연제구 해맞이로 39,35.1780742412,129.06757083
742,연동초등학교,부산광역시 연제구 고분로56번길 40,35.184489899999996,129.0882587
743,연미초등학교,부산광역시 연제구 금련로38번길 84,35.170706565500005,129.092112453
744,연일초등학교,부산광역시 연제구 고분로 126-4,35.1843210407,129.095455851
745,거학초등학교,부산광역시 연제구 교대로24번길 36,35.197478157,129.0768469
746,남문초등학교,부산광역시 연제구 법원북로 23,35.194488799999995,129.0695068
747,창신초등학교,부산광역시 연제구 종합운동장로12번길 15,35.1928140374,129.065854199
748,연신초등학교,부산광역시 연제구 신금로23번길 30,35.1924819682,129.09315818
749,과정초등학교,부산광역시 연제구 과정로164번길 37,35.1867333361,129.11034968
750,연천초등학교,부산광역시 연제구 과정로225번길 46,35.1862198949,129.100492456
751,토현초등학교,부산광역시 연제구 토현로 48,35.1816338,129.1119849
752,연서초등학교,부산광역시 연제구 거제천로270번길 30,35.1909514419,129.086602713
753,동명초등학교,부산광역시 연제구 쌍미천로44번길 17,35.1781717418,129.090859391
754,연산초등학교,부산광역시 연제구 월드컵대로 41,35.1782625862,129.08411840000002
755,연제초등학교,부산광역시 연제구 중앙대로1065번길 14,35.1840545621,129.077873441
756,상학초등학교,부산광역시 북구 상학산복길 191,35.2186792325,129.040022899
757,학사초등학교,부산광역시 북구 용당로9번길 15,35.2309329274,129.009340205
758,명진초등학교,부산광역시 북구 화명신도시로 159,35.2385600024,129.010446639
759,덕천초등학교,부산광역시 북구 덕천2길 10,35.2084322129,129.006760792
760,구포초등학교,부산광역시 북구 백양대로1124번길 20,35.2027218941,129.000695878
761,신천초등학교,부산광역시 북구 모분재로 83,35.2003812502,129.008604734
762,구남초등학교,부산광역시 북구 구남로14번가길 23,35.200290959,128.993570225
763,포천초등학교,부산광역시 북구 시랑로 115,35.196642183499996,129.009101092
764,금창초등학교,부산광역시 북구 효열로235번길 14,35.2656921915,129.019744431
765,금곡초등학교,부산광역시 북구 효열로 174,35.2618153837,129.01704643600002
766,신금초등학교,부산광역시 북구 효열로 42,35.2508696244,129.014793352
767,양천초등학교,부산광역시 북구 덕천로 132,35.209790446,129.018077414
768,덕성초등학교,부산광역시 북구 만덕대로39번길 45,35.2132204442,129.00798990299998
769,양덕초등학교,부산광역시 북구 팽나무로 58,35.205838922199995,129.011413806
770,백양초등학교,부산광역시 북구 상리로18번길 12,35.2068164245,129.0346665983
771,만덕초등학교,부산광역시 북구 만덕1로 72,35.2150426125,129.028845664
772,백산초등학교,부산광역시 북구 덕천로259번길 23,35.2116820842,129.032772046
773,덕양초등학교,부산광역시 북구 함박봉로 42,35.2093033369,129.02307226
774,화명초등학교,부산광역시 북구 대천천길 65,35.2422405,129.018073663
775,대천리초등학교,부산광역시 북구 산성로 87-10,35.2424898188,129.022727717
776,화잠초등학교,부산광역시 북구 화명대로 97-25,35.235929799999994,129.01735970000001
777,금명초등학교,부산광역시 북구 화명신도시로 197,35.2417157705,129.010994686
778,신덕초등학교,부산광역시 북구 함박봉로140번가길 25,35.202937865500004,129.032518909
779,와석초등학교,부산광역시 북구 화명대로94번길 83,35.2309163551,129.01748477799998
780,명덕초등학교,부산광역시 북구 금곡대로186번길 43,35.2254596796,129.01181020799999
781,용수초등학교,부산광역시 북구 화명신도시로 53,35.2291385897,129.009076291
782,명호초등학교,부산광역시 강서구 명지오션시티2로 41,35.085269700000005,128.900408315
783,녹명초등학교,부산광역시 강서구 낙동남로 617,35.1148435,128.886391833
784,가락초등학교,부산광역시 강서구 호계로 41,35.1953628436,128.89645831
785,대사초등학교,부산광역시 강서구 낙동북로73번길 29,35.2202735,128.93878329999998
786,대상초등학교,부산광역시 강서구 대저로 249,35.2141208423,128.980252716
787,대저초등학교,부산광역시 강서구 대저로29번길 27,35.2161016788,128.955307884
788,덕두초등학교,부산광역시 강서구 공항로791번길 68,35.1756477806,128.955870586
789,배영초등학교,부산광역시 강서구 공항로339번길 260,35.1502024465,128.945324817
790,신호초등학교,부산광역시 강서구 신호산단2로75번길 12,35.081968003200004,128.878586082
791,천가초등학교,부산광역시 강서구 동선길 135,35.0523462742,128.831268714
792,감전초등학교,부산광역시 사상구 괘감로 132,35.1556805,128.9885404
793,서감초등학교,부산광역시 사상구 괘감로 64,35.157646245,128.9822978
794,덕포초등학교,부산광역시 사상구 삼덕로 83,35.1739312703,128.986029368
795,괘법초등학교,부산광역시 사상구 사상로161번길 8,35.1601831693,128.985795966
796,창진초등학교,부산광역시 사상구 사상로223번길 100,35.1661715459,128.9778323
797,덕상초등학교,부산광역시 사상구 덕상로 32,35.174731410999996,128.990645361
798,사상초등학교,부산광역시 사상구 운산로 65,35.167610394,128.98284225700002
799,모동초등학교,부산광역시 사상구 모라로192번길 37,35.185230128,129.001900265
800,모덕초등학교,부산광역시 사상구 덕상로 120,35.1827017577,128.991937417
801,모라초등학교,부산광역시 사상구 모라로64번길 46,35.190044872600005,128.98643032799998
802,모산초등학교,부산광역시 사상구 모라로110번길 93,35.1857154985,128.995207468
803,삼덕초등학교,부산광역시 사상구 삼덕로 24,35.1741853264,128.978216668
804,학진초등학교,부산광역시 사상구 대동로 34-16,35.1330267,128.975145295
805,엄궁초등학교,부산광역시 사상구 엄궁로191번길 23,35.1291850946,128.974398208
806,동궁초등학교,부산광역시 사상구 엄궁로 70-7,35.1233479,128.97472290000002
807,주학초등학교,부산광역시 사상구 가야대로366번길 120,35.146064646,129.01215766299998
808,동주초등학교,부산광역시 사상구 가야대로306번길 72,35.147133111100004,129.00555970000002
809,주양초등학교,부산광역시 사상구 백양대로 372-6,35.1536815186,129.012147745
810,주감초등학교,부산광역시 사상구 양지로 48,35.1539156751,129.001496899
811,구학초등학교,부산광역시 사상구 학감대로 49,35.1377593,128.992215182
812,학장초등학교,부산광역시 사상구 대동로 205,35.146148465100005,128.984572735
813,해원초등학교,부산광역시 해운대구 마린시티2로 10,35.1588200713,129.1439005
814,좌산초등학교,부산광역시 해운대구 좌동순환로311번길 7,35.1688558933,129.183858688
815,송정초등학교,부산광역시 해운대구 해운대로 1164-9,35.189289047399996,129.204989493
816,센텀초등학교,부산광역시 해운대구 센텀중앙로 166,35.1811418655,129.12194065100002
817,무정초등학교,부산광역시 해운대구 반여로 68-11,35.1981556893,129.123779671
818,운송초등학교,부산광역시 해운대구 반송로 839,35.2286388398,129.14608639
819,반송초등학교,부산광역시 해운대구 아랫반송로30번길 37-16,35.2235813567,129.147525747
820,운봉초등학교,부산광역시 해운대구 신반송로 11-20,35.229281769800004,129.159181215
821,송운초등학교,부산광역시 해운대구 신반송로 20,35.2286107823,129.15739307799998
822,반석초등학교,부산광역시 해운대구 선수촌로207번길 14,35.2114030371,129.124981205
823,인지초등학교,부산광역시 해운대구 반여로 128,35.2028794056,129.125119162
824,장산초등학교,부산광역시 해운대구 선수촌로 68,35.2000411375,129.119652525
825,반여초등학교,부산광역시 해운대구 재반로242번길 51-10,35.199161100000005,129.134963998
826,위봉초등학교,부산광역시 해운대구 재반로 301,35.2027272108,129.12947163
827,해동초등학교,부산광역시 해운대구 우동1로 104,35.1703057831,129.15544732200001
828,해강초등학교,부산광역시 해운대구 해운대해변로 73,35.1621542762,129.141721698
829,해림초등학교,부산광역시 해운대구 해운대로469번길 42,35.1650777,129.1437861
830,강동초등학교,부산광역시 해운대구 해운대로349번길 10,35.1723205773,129.136746827
831,재송초등학교,부산광역시 해운대구 재반로64번길 33,35.186439317600005,129.12776435799998
832,반산초등학교,부산광역시 해운대구 재반로 171,35.1934425916,129.129633193
833,송수초등학교,부산광역시 해운대구 해운대로76번길 35,35.189883064600004,129.119261226
834,신재초등학교,부산광역시 해운대구 해운대로81번길 55,35.1917692106,129.1227741
835,신도초등학교,부산광역시 해운대구 좌동순환로 34,35.1694836235,129.167378883
836,좌동초등학교,부산광역시 해운대구 세실로 127,35.1760164218,129.175142797
837,부흥초등학교,부산광역시 해운대구 좌동순환로 216,35.1757112,129.178192115
838,신곡초등학교,부산광역시 해운대구 좌동순환로 290,35.1699767248,129.181869387
839,해송초등학교,부산광역시 해운대구 좌동순환로402번길 32,35.1642449179,129.179499553
840,양운초등학교,부산광역시 해운대구 대천로67번길 36,35.174747497199995,129.166705
841,해운대초등학교,부산광역시 해운대구 중동2로24번길 30,35.164907914400004,129.165650868
842,동백초등학교,부산광역시 해운대구 좌동순환로357번길 6,35.1640193191,129.181218577
843,삼어초등학교,부산광역시 해운대구 삼어로91번길 73,35.2086973045,129.115854587
844,반안초등학교,부산광역시 해운대구 명장로67번길 40-42,35.2029335,129.11322897600002
845,상당초등학교,부산광역시 해운대구 세실로 173,35.179655700000005,129.176029362
846,광안초등학교,부산광역시 수영구 광안로21번가길 35,35.1572947,129.116731883
847,수영초등학교,부산광역시 수영구 광서로16번길 33,35.1661243974,129.112086326
848,호암초등학교,부산광역시 수영구 호암로 57,35.1581640243,129.106372034
849,남천초등학교,부산광역시 수영구 남천서로 14,35.1435161581,129.107126624
850,광남초등학교,부산광역시 수영구 광안해변로 115,35.1450717619,129.11342470399998
851,망미초등학교,부산광역시 수영구 수미로35번길 27,35.1749154584,129.114390279
852,배산초등학교,부산광역시 수영구 망미배산로48번길 85-15,35.1775374,129.10218030000001
853,수미초등학교,부산광역시 수영구 연수로310번길 91,35.1687860109,129.103722456
854,민락초등학교,부산광역시 수영구 광남로257번길 12,35.1609477038,129.126941978
855,민안초등학교,부산광역시 수영구 감포로38번길 33,35.1630667094,129.121216285
856,내리초등학교,부산광역시 기장군 기장읍 소정안길 50,35.205763088699996,129.205505214
857,신정초등학교,부산광역시 기장군 정관읍 정관로 460,35.3286572242,129.167684743
858,교리초등학교,부산광역시 기장군 기장읍 차성로 427,35.255065842600004,129.2167847
859,대청초등학교,부산광역시 기장군 기장읍 차성서로 31,35.2355026941,129.209912782
860,용암초등학교,부산광역시 기장군 기장읍 기장해안로 577,35.2253083784,129.226864374
861,기장초등학교,부산광역시 기장군 기장읍 읍내로 69,35.2457737803,129.21276633899998
862,죽성초등학교,부산광역시 기장군 기장읍 죽성로 270,35.242754751599996,129.243602247
863,장안초등학교,부산광역시 기장군 장안읍 장안로 67-4,35.346500333200005,129.254101198
864,월내초등학교,부산광역시 기장군 장안읍 길천2길 25,35.3280645584,129.282480875
865,좌천초등학교,부산광역시 기장군 장안읍 좌천로 13-66,35.3119521121,129.239558378
866,신진초등학교,부산광역시 기장군 철마면 고촌로28번길 10,35.2409208585,129.17146234700002
867,철마초등학교,부산광역시 기장군 철마면 철마로 493,35.2752188347,129.151235686
868,칠암초등학교,부산광역시 기장군 일광면 박영준길 19,35.2987514122,129.2559051
869,일광초등학교,부산광역시 기장군 일광면 이화로 147,35.2795023118,129.23171033
870,월평초등학교,부산광역시 기장군 정관읍 월평1길 21,35.3599631,129.138553
871,정관초등학교,부산광역시 기장군 정관읍 정관로 530,35.3230333,129.1715315
872,대구종로초등학교,대구광역시 중구 경상감영길 49,35.8723862,128.59013290000001
873,대구수창초등학교,대구광역시 중구 달성로22길 30,35.8742917,128.5841371
874,대구동덕초등학교,대구광역시 중구 동덕로26길 20,35.8647633,128.60467649999998
875,대구삼덕초등학교,대구광역시 중구 달구벌대로447길 10,35.8635879,128.6081317
876,대구초등학교,대구광역시 중구 명륜로23길 80,35.863898,128.5958876
877,대구명덕초등학교,대구광역시 중구 남산로2길 125,35.857981099999996,128.5896383
878,대구남산초등학교,대구광역시 중구 남산로 70,35.8632039,128.5832419
879,대구동인초등학교,대구광역시 중구 국채보상로 728,35.867675,128.609809
880,계성초등학교,대구광역시 중구 달성로 15,35.865757,128.5812575
881,대구율금초등학교,대구광역시 동구 안심로16길 70,35.8618784,128.6918747
882,대구신천초등학교,대구광역시 동구 송라로6길 5,35.8717902,128.6205859
883,대구해안초등학교,대구광역시 동구 옻골로 50,35.8958667,128.6829143
884,대구해서초등학교,대구광역시 동구 팔공로 220-4,35.9180615,128.64305890000003
885,대구반야월초등학교,대구광역시 동구 안심로49길 70,35.8691034,128.71101470000002
886,대구송정초등학교,대구광역시 동구 안심로90길 9,35.87036629999999,128.7337374
887,대구공산초등학교,대구광역시 동구 팔공로197길 35,35.9567622,128.69002959999997
888,대구서촌초등학교,대구광역시 동구 파계로 525-11,35.980532000000004,128.6318054
889,대구동촌초등학교,대구광역시 동구 동촌로 168,35.882078,128.65912930000002
890,대구방촌초등학교,대구광역시 동구 동촌로42길 35-14,35.880488899999996,128.6632327
891,대구용호초등학교,대구광역시 동구 동촌로56길 82,35.87722120000001,128.6725634
892,대구불로초등학교,대구광역시 동구 방천로3길 19,35.897486,128.6331366
893,대구아양초등학교,대구광역시 동구 아양로 221,35.887322,128.6373809
894,대구신성초등학교,대구광역시 동구 동북로71길 29,35.890212,128.62909779999998
895,동대구초등학교,대구광역시 동구 신암남로 45,35.879396500000006,128.621261
896,대구덕성초등학교,대구광역시 동구 아양로34길 50,35.8820296,128.6282433
897,대구동신초등학교,대구광역시 동구 송라로 123,35.8779826,128.6152564
898,대구동부초등학교,대구광역시 동구 신암북로7길 22,35.888450899999995,128.6200713
899,대구효신초등학교,대구광역시 동구 동부로34길 70,35.8726276,128.6324991
900,대구안일초등학교,대구광역시 동구 율하동로23길 66,35.87150220000001,128.6953152
901,대구율하초등학교,대구광역시 동구 율하동로15길 1,35.8678135833,128.7015368671
902,대구지묘초등학교,대구광역시 동구 파계로6길 54-3,35.94292539999999,128.6384133
903,대구효동초등학교,대구광역시 동구 효동로 78-7,35.8840974,128.6447693
904,대구효목초등학교,대구광역시 동구 화랑로27길 25,35.87620220000001,128.6420061
905,대구율원초등학교,대구광역시 동구 율하동로 55,35.864573799999995,128.70069840000002
906,대구동호초등학교,대구광역시 동구 동호로 25,35.86541029999999,128.72046559999998
907,대구입석초등학교,대구광역시 동구 아양로 300,35.8912099,128.64337340000003
908,대구강동초등학교,대구광역시 동구 동호로7길 17,35.8677641,128.7300785
909,영신초등학교,대구광역시 동구 팔공로50길 32,35.9193948,128.6463738
910,대구숙천초등학교,대구광역시 동구 숙천로 17,35.8769766,128.7532665
911,대구동산초등학교,대구광역시 수성구 동대구로42길 29,35.849158700000004,128.6281114
912,대구동문초등학교,대구광역시 수성구 효행로2길 111,35.8748176,128.6521182
913,대구동일초등학교,대구광역시 수성구 들안로 311,35.858200700000005,128.616986
914,대구시지초등학교,대구광역시 수성구 달구벌대로631길 17,35.8437252,128.7035031
915,대구매호초등학교,대구광역시 수성구 달구벌대로647길 30,35.841593100000004,128.7124594
916,대구매동초등학교,대구광역시 수성구 천을로31길 16,35.8450274,128.7092123
917,대구신매초등학교,대구광역시 수성구 달구벌대로650길 26,35.8365523,128.7092093
918,대구사월초등학교,대구광역시 수성구 달구벌대로656길 46,35.8337544,128.7153269
919,대구욱수초등학교,대구광역시 수성구 신매로 20,35.831084999999995,128.7075177
920,대구청림초등학교,대구광역시 수성구 고산로 51,35.8354899,128.7034979
921,대구노변초등학교,대구광역시 수성구 노변공원로 52,35.8376255,128.6975583
922,대구고산초등학교,대구광역시 수성구 달구벌대로 3067,35.8443531,128.69319779999998
923,대구들안길초등학교,대구광역시 수성구 들안로16길 58,35.8389175,128.6184513
924,대구중앙초등학교,대구광역시 수성구 만촌로 125,35.8697393,128.64041809999998
925,대구만촌초등학교,대구광역시 수성구 국채보상로214길 33,35.867116100000004,128.6480386
926,대구대청초등학교,대구광역시 수성구 교학로12길 42,35.8512558,128.6505211
927,대구동원초등학교,대구광역시 수성구 국채보상로 1000,35.865276200000004,128.64003229999997
928,대구복명초등학교,대구광역시 수성구 범안로20길 8,35.817658,128.64722690000002
929,대구범물초등학교,대구광역시 수성구 지범로41길 33,35.8217026,128.6451405
930,대구범일초등학교,대구광역시 수성구 범안로4길 22,35.8161502,128.63928700000002
931,대구동천초등학교,대구광역시 수성구 상록로16길 20,35.865487,128.6256824
932,대구경동초등학교,대구광역시 수성구 청호로76길 12,35.8521724,128.639442
933,대구범어초등학교,대구광역시 수성구 달구벌대로489길 55,35.86066160000001,128.633199
934,대구동도초등학교,대구광역시 수성구 동대구로57길 8,35.856997,128.6240379
935,대구수성초등학교,대구광역시 수성구 상화로5길 40,35.836837,128.6102361
936,대구동성초등학교,대구광역시 수성구 수성로 311,35.85318779999999,128.61253159999998
937,대구지봉초등학교,대구광역시 수성구 지범로31길 45,35.8253389,128.6405272
938,대구두산초등학교,대구광역시 수성구 동대구로6길 31,35.832638200000005,128.6262545
939,대구지산초등학교,대구광역시 수성구 지범로17길 3-14,35.827213,128.62989960000002
940,대구용지초등학교,대구광역시 수성구 지산로 12,35.822008399999994,128.6327215
941,대구파동초등학교,대구광역시 수성구 파동로51길 34,35.8242729,128.6076568
942,대구성동초등학교,대구광역시 수성구 청수로45길 27,35.8413628,128.6323184
943,대구황금초등학교,대구광역시 수성구 들안로32길 22,35.8440211,128.61838909999997
944,대구삼육초등학교,대구광역시 수성구 청수로 22-23,35.8400739,128.61066540000002
945,대구달성초등학교,대구광역시 서구 고성로 127,35.8825451,128.57932
946,대구내서초등학교,대구광역시 서구 달구벌대로371길 35,35.863738399999995,128.5666431
947,대구두류초등학교,대구광역시 서구 달구벌대로357길 22,35.861627500000004,128.5599761
948,대구경운초등학교,대구광역시 서구 평리로54길 16,35.86130670000001,128.55270259999998
949,대구서부초등학교,대구광역시 서구 달서로26길 25,35.873878321199996,128.57371521299999
950,대구대성초등학교,대구광역시 서구 국채보상로 426,35.8705487,128.5772657
951,대구비봉초등학교,대구광역시 서구 달서로45길 30,35.882863799999996,128.5686879
952,대구북비산초등학교,대구광역시 서구 통학로48길 7,35.8813652,128.5646181
953,대구인지초등학교,대구광역시 서구 서대구로66길 20,35.8864869,128.5674442
954,서대구초등학교,대구광역시 서구 서대구로63길 28-13,35.8891696,128.55786709999998
955,대구중리초등학교,대구광역시 서구 국채보상로 135,35.869552399999996,128.5453239
956,대구달서초등학교,대구광역시 서구 국채보상로34길 35,35.8667294,128.5502964
957,대구서평초등학교,대구광역시 서구 서대구로45길 60,35.8782523,128.54790500000001
958,대구비산초등학교,대구광역시 서구 통학로 202,35.8786602,128.5640618
959,대구평리초등학교,대구광역시 서구 국채보상로53길 6-5,35.872413,128.5608249
960,대구서도초등학교,대구광역시 서구 평리로 395,35.866963500000004,128.5662356
961,대구이현초등학교,대구광역시 서구 국채보상로37길 35,35.8735174,128.5504531
962,대구조야초등학교,대구광역시 북구 조야로8길 16,35.9097412,128.5771341
963,대구관문초등학교,대구광역시 북구 매전로 32,35.908354100000004,128.5461085
964,대구관음초등학교,대구광역시 북구 관음동로17길 16,35.940014899999994,128.54679280000002
965,대구관남초등학교,대구광역시 북구 칠곡중앙대로91길 10,35.9369109,128.54796399999998
966,대구강북초등학교,대구광역시 북구 구암서로 50,35.9408343,128.56678200000002
967,대구운암초등학교,대구광역시 북구 대천로 148,35.9358673,128.56562830000001
968,대구구암초등학교,대구광역시 북구 학정로 245,35.928071200000005,128.55747759999997
969,대구신암초등학교,대구광역시 북구 경대로 21,35.8840647,128.6124293
970,대구매천초등학교,대구광역시 북구 매천로 179,35.913004799999996,128.5415391
971,대구문성초등학교,대구광역시 북구 복현로 180,35.9055506,128.6207575
972,대구복현초등학교,대구광역시 북구 공항로 58,35.8975855,128.6216057
973,대구경진초등학교,대구광역시 북구 경진로12길 5,35.8921138,128.6172863
974,북대구초등학교,대구광역시 북구 동북로37길 68,35.9031501,128.6095652
975,대구산격초등학교,대구광역시 북구 산격로10길 14,35.8942078,128.6068497
976,대구대산초등학교,대구광역시 북구 신천동로 900,35.896905100000005,128.5935228
977,대구교동초등학교,대구광역시 북구 관음중앙로34길 4,35.9447886,128.5494463
978,대구칠곡초등학교,대구광역시 북구 칠곡중앙대로110길 5,35.9450018,128.55190729999998
979,대구대천초등학교,대구광역시 북구 구암로21길 54,35.937078299999996,128.5542177
980,대구옥산초등학교,대구광역시 북구 칠성시장로23길 55,35.881334499999994,128.5983163
981,대구칠성초등학교,대구광역시 북구 침산남로32길 17,35.8867234,128.5939142
982,대구달산초등학교,대구광역시 북구 옥산로17길 37,35.8875869,128.58514409999998
983,대구침산초등학교,대구광역시 북구 성북로 25,35.8914551,128.5855746
984,대구태현초등학교,대구광역시 북구 태전로 95,35.9282057,128.5407643
985,대구관천초등학교,대구광역시 북구 구암로22길 17,35.9305346,128.5520482
986,대구태암초등학교,대구광역시 북구 칠곡중앙대로52길 56,35.9230319,128.5506518
987,대구태전초등학교,대구광역시 북구 칠곡중앙대로75길 16,35.9302356,128.54600159999998
988,대구도남초등학교,대구광역시 북구 구리로 202,35.9483416,128.577122
989,대구학남초등학교,대구광역시 북구 학정동로 23,35.94623970000001,128.5663595
990,대구동변초등학교,대구광역시 북구 동변로 60,35.919342,128.60424790000002
991,대구북부초등학교,대구광역시 북구 동천로 20,35.9334558,128.5591579
992,대구함지초등학교,대구광역시 북구 동천로 33,35.934816299999994,128.55797420000002
993,대구동평초등학교,대구광역시 북구 동천로 84,35.9387842,128.5607558
994,대구성북초등학교,대구광역시 북구 호국로57길 42,35.9263303,128.5942114
995,대구서변초등학교,대구광역시 북구 호국로43길 35,35.920595299999995,128.595132
996,대구팔달초등학교,대구광역시 북구 매천로2길 19-6,35.8979308,128.5448273
997,대구학정초등학교,대구광역시 북구 학남로 32,35.9484505,128.5690477
998,대구효명초등학교,대구광역시 남구 앞산순환로 707,35.8345445,128.60099979999998
999,대구남도초등학교,대구광역시 남구 현충동길 74,35.845157,128.5813263
1000,대구남명초등학교,대구광역시 남구 큰골4길 41,35.8345108,128.5820831
1001,대구남덕초등학교,대구광역시 남구 앞산순환로93길 33,35.8329404,128.5740284
1002,대구대명초등학교,대구광역시 남구 대명로 100,35.8388959,128.5691209
1003,대구대덕초등학교,대구광역시 남구 대명서로 28,35.8301959,128.5618293
1004,남대구초등학교,대구광역시 남구 중앙대로47길 55,35.853580900000004,128.5864793
1005,대구성명초등학교,대구광역시 남구 성당로30길 55,35.845499100000005,128.5710679
1006,대구봉덕초등학교,대구광역시 남구 효성로 71,35.839813,128.59715970000002
1007,대구대봉초등학교,대구광역시 남구 대봉로26길 33,35.8513618,128.6050747
1008,대구영선초등학교,대구광역시 남구 영선길 96,35.8524875,128.59604579999998
1009,대구교육대학교대구부설초등학교,대구광역시 달서구 도원남로 19,35.8059641,128.532419
1010,대구장기초등학교,대구광역시 달서구 장기로 280,35.8444367,128.5290793
1011,대구대남초등학교,대구광역시 달서구 월배로68길 91,35.824349100000006,128.5518567
1012,대구진천초등학교,대구광역시 달서구 상화로9길 65,35.81129310000001,128.5195777
1013,대구유천초등학교,대구광역시 달서구 달서대로 39,35.8123162,128.5119967
1014,대구도원초등학교,대구광역시 달서구 도원남로 100-30,35.804848299999996,128.54229660000001
1015,대구대곡초등학교,대구광역시 달서구 도원남로 60,35.8031686,128.5357805
1016,대구노전초등학교,대구광역시 달서구 한실로 43,35.808170399999995,128.5312376
1017,대구남송초등학교,대구광역시 달서구 송현로 192,35.8349208,128.5453558
1018,대구월서초등학교,대구광역시 달서구 월배로39길 46,35.8214914,128.53178559999998
1019,대구상인초등학교,대구광역시 달서구 월곡로 211,35.813292,128.542499
1020,대구대서초등학교,대구광역시 달서구 송현로 9,35.8198277,128.5499913
1021,대구월촌초등학교,대구광역시 달서구 상인서로 60,35.8163888,128.543319
1022,대구월곡초등학교,대구광역시 달서구 상인로 40,35.8121868,128.5492658
1023,대구상원초등학교,대구광역시 달서구 월곡로20길 15,35.806364,128.5507007
1024,대구송현초등학교,대구광역시 달서구 송현로 128,35.828813399999994,128.54494440000002
1025,대구감천초등학교,대구광역시 달서구 구마로12길 60,35.8352704,128.5331864
1026,대구학산초등학교,대구광역시 달서구 월성로 76,35.8311237,128.5260944
1027,대구월성초등학교,대구광역시 달서구 학산로7길 26,35.8311044,128.5319666
1028,대구송일초등학교,대구광역시 달서구 학산로2길 38,35.8241222,128.5328413
1029,대구신월초등학교,대구광역시 달서구 조암남로 100,35.82046939999999,128.5228003
1030,대구조암초등학교,대구광역시 달서구 조암로5길 19,35.8238279,128.52846780000002
1031,대구월암초등학교,대구광역시 달서구 조암로6길 55,35.8282722,128.52170470000002
1032,대구월배초등학교,대구광역시 달서구 월배로 131,35.8167252,128.5287317
1033,대구진월초등학교,대구광역시 달서구 진천로4길 32,35.8110011,128.5282555
1034,대구대진초등학교,대구광역시 달서구 상화로 70,35.806662200000005,128.52178030000002
1035,대구감삼초등학교,대구광역시 달서구 당산로 123,35.8493001,128.5452328
1036,대구본리초등학교,대구광역시 달서구 장기로 198,35.8445943,128.5386527
1037,대구성남초등학교,대구광역시 달서구 성당로47길 35,35.8533292597,128.57228615100001
1038,대구내당초등학교,대구광역시 달서구 명덕로 22-9,35.8605408,128.5725022
1039,대구신흥초등학교,대구광역시 달서구 두류공원로 257,35.8564345,128.5567464
1040,대구성당초등학교,대구광역시 달서구 대명천로 118,35.8407442,128.5473222
1041,대구덕인초등학교,대구광역시 달서구 대명천로43길 66,35.8387263,128.53449640000002
1042,대구남부초등학교,대구광역시 달서구 야외음악당로15길 46,35.844713299999995,128.54998590000002
1043,대구신서초등학교,대구광역시 달서구 계대동문로3길 46,35.8580667,128.494766
1044,대구신당초등학교,대구광역시 달서구 서당로 14,35.8533103,128.49632409999998
1045,대구성지초등학교,대구광역시 달서구 새동네로 27,35.8530239,128.5186741
1046,대구성서초등학교,대구광역시 달서구 달구벌대로 1339,35.85196129999999,128.5144568
1047,대구죽전초등학교,대구광역시 달서구 죽전길 127,35.8576883,128.539937
1048,대구성산초등학교,대구광역시 달서구 선원남로 173,35.8578839,128.5188618
1049,대구선원초등학교,대구광역시 달서구 선원로33길 105,35.8612634,128.5154071
1050,대구용산초등학교,대구광역시 달서구 와룡로49길 80,35.8554756,128.5322549
1051,대구용전초등학교,대구광역시 달서구 용산로 260,35.8609762,128.5312642
1052,대구장산초등학교,대구광역시 달서구 장산로 30,35.8547707,128.5265462
1053,대구와룡초등학교,대구광역시 달서구 선원남로 22,35.8570908,128.50182809999998
1054,대구이곡초등학교,대구광역시 달서구 선원남로 120,35.8568211,128.5136512
1055,대구성곡초등학교,대구광역시 달서구 선원남로 127,35.85805429999999,128.5136126
1056,대구장성초등학교,대구광역시 달서구 달구벌대로 1429-11,35.85034829999999,128.5229433
1057,대구장동초등학교,대구광역시 달서구 달구벌대로304길 112,35.8445984,128.5318015
1058,대구호산초등학교,대구광역시 달서구 달서대로109길 116,35.8489555,128.4791174
1059,대구파호초등학교,대구광역시 달서구 달서대로109안길 76,35.8505565,128.481525
1060,효성초등학교,대구광역시 달서구 송현로 81,35.8242155,128.54341780000001
1061,대구다사초등학교,대구광역시 달성군 다사읍 다사로 86,35.869034899999996,128.4586371
1062,대구왕선초등학교,대구광역시 달성군 다사읍 대실역북로 93,35.8632119,128.465328
1063,대구매곡초등학교,대구광역시 달성군 다사읍 대실역북로3길 6,35.86219439999999,128.4685331
1064,대구서재초등학교,대구광역시 달성군 다사읍 서재로 100,35.872222799999996,128.49825259999997
1065,대구도림초등학교,대구광역시 달성군 다사읍 서재로26길 94,35.8779546,128.4997005
1066,대구죽곡초등학교,대구광역시 달성군 다사읍 죽곡1길 18,35.8565749,128.463128
1067,대구천내초등학교,대구광역시 달성군 화원읍 성천로 192,35.8094091,128.5020282
1068,대구화남초등학교,대구광역시 달성군 화원읍 명천로 181,35.7997494,128.4981648
1069,대구명곡초등학교,대구광역시 달성군 화원읍 명곡로 40,35.796637100000005,128.4961827
1070,대구화원초등학교,대구광역시 달성군 화원읍 비슬로 2580,35.8033315,128.4996244
1071,대구화동초등학교,대구광역시 달성군 화원읍 성암로 38,35.79975820000001,128.5096159
1072,대구금포초등학교,대구광역시 달성군 논공읍 금포초등길 28,35.774489700000004,128.4260848
1073,대구북동초등학교,대구광역시 달성군 논공읍 논공로11길 18,35.7294657,128.44064640000002
1074,대구논공초등학교,대구광역시 달성군 논공읍 논공로7길 41,35.7311279,128.4374078
1075,대구남동초등학교,대구광역시 달성군 논공읍 논공로 258,35.7246588,128.4564670815
1076,대구동곡초등학교,대구광역시 달성군 하빈면 달구벌대로55길 104-4,35.8791451,128.41783
1077,대구하빈초등학교,대구광역시 달성군 하빈면 하빈로 391-1,35.9015587,128.4421533
1078,대구반송초등학교,대구광역시 달성군 옥포읍 용연사길 5,35.756397899999996,128.4944993
1079,대구금계초등학교,대구광역시 달성군 옥포읍 금계길 55,35.7888893,128.443749
1080,대구옥포초등학교,대구광역시 달성군 옥포읍 비슬로 2220,35.788282,128.4644117
1081,대구가창초등학교,대구광역시 달성군 가창면 가창로 640,35.771063899999994,128.6482483
1082,대구용계초등학교,대구광역시 달성군 가창면 가창로221길 1,35.8045644,128.6217931
1083,대구현풍초등학교,대구광역시 달성군 현풍면 비슬로134길 167-6,35.6978796,128.4482704
1084,대구구지초등학교,대구광역시 달성군 구지면 창리로11길 45-11,35.6602112113,128.4125565529
1085,인천신흥초등학교,인천광역시 중구 제물량로 134,37.470254,126.6285263
1086,인천신광초등학교,인천광역시 중구 인중로 63,37.4643339779,126.6345104383
1087,인천신선초등학교,인천광역시 중구 축항대로291번길 33,37.4515517,126.6276157
1088,인천송월초등학교,인천광역시 중구 자유공원로 106-8,37.478483000000004,126.6246821
1089,인천운서초등학교,인천광역시 중구 운서2로 57,37.483798799999995,126.51221799999999
1090,인천용유초등학교,인천광역시 중구 남북로 87,37.4476138,126.41173140000001
1091,인천연안초등학교,인천광역시 중구 연안부두로33번길 53,37.4537576,126.6076848
1092,인천운남초등학교,인천광역시 중구 운남서로 38,37.4902935,126.53025819999999
1093,인천공항초등학교,인천광역시 중구 신도시남로 43,37.4918637029,126.486001911
1094,인천삼목초등학교,인천광역시 중구 신도시북로 42,37.4986635,126.4863507
1095,인천영종초등학교,인천광역시 중구 하늘달빛로 133,37.488700711599996,126.553721779
1096,인성초등학교,인천광역시 중구 신포로39번길 42,37.4739461586,126.6242484624
1097,인천용유초등학교무의분교장,인천광역시 중구 대무의로 302-8,37.3901947,126.42602590000001
1098,인천영종초등학교금산분교장,인천광역시 중구 백운로414번길 63-50,37.5133248,126.52144550000001
1099,인천만석초등학교,인천광역시 동구 제물량로 412,37.4842211,126.6280155
1100,인천송현초등학교,인천광역시 동구 송화로 45,37.48196179999999,126.63365800000001
1101,인천창영초등학교,인천광역시 동구 우각로15번길 16,37.471585,126.63969371969999
1102,인천송림초등학교,인천광역시 동구 배송로 2,37.4741323,126.6377472
1103,인천서흥초등학교,인천광역시 동구 샛골로 189,37.4789165,126.64459550000001
1104,인천서림초등학교,인천광역시 동구 금곡로 105,37.4754622,126.64652659999999
1105,인천동명초등학교,인천광역시 동구 송림로70번길 10,37.47415,126.64217509999999
1106,영화초등학교,인천광역시 동구 우각로 39,37.471191600000004,126.6404233
1107,인천숭의초등학교,인천광역시 미추홀구 장천로 99,37.46340429999999,126.65508600000001
1108,인천용정초등학교,인천광역시 미추홀구 독정안길 26,37.4594038,126.6572363
1109,인천용일초등학교,인천광역시 미추홀구 인주대로 244,37.452673,126.66318390000002
1110,인천용현초등학교,인천광역시 미추홀구 낙섬동로 83,37.4534508,126.64145549999999
1111,인천용현남초등학교,인천광역시 미추홀구 매소홀로 133,37.44772570000001,126.6416335
1112,인천학산초등학교,인천광역시 미추홀구 한나루로357번길 66,37.4394172,126.6582557
1113,인천백학초등학교,인천광역시 미추홀구 매소홀로446번길 25,37.4387974,126.67198710000001
1114,인천도화초등학교,인천광역시 미추홀구 경인로 242,37.4634425,126.668245
1115,인천문학초등학교,인천광역시 미추홀구 매소홀로 553(문학동),37.4395489,126.68286370000001
1116,인천관교초등학교,인천광역시 미추홀구 인하로 414,37.44605670000001,126.6925736
1117,인천경원초등학교,인천광역시 미추홀구 경인로 511(주안동),37.4612243,126.6956395
1118,인천석암초등학교,인천광역시 미추홀구 주안동로 46,37.4620725,126.6869618
1119,인천남부초등학교,인천광역시 미추홀구 인주대로366번길 22(주안동),37.45036279999999,126.67622709999999
1120,인천승학초등학교,인천광역시 미추홀구 주승로 259,37.440325200000004,126.6963967
1121,인천서화초등학교,인천광역시 미추홀구 송림로 250,37.4737961,126.6609888
1122,인천대화초등학교,인천광역시 미추홀구 석정로301번길 13,37.4688635,126.6686835
1123,인천주안북초등학교,인천광역시 미추홀구 석정로375번길 14,37.468165899999995,126.67813159999999
1124,인천주안남초등학교,인천광역시 미추홀구 인주대로434번길 11,37.4500131,126.6852638
1125,인천학익초등학교,인천광역시 미추홀구 한나루로403번길 122(학익동),37.446540899999995,126.658828
1126,인천인주초등학교,인천광역시 미추홀구 매소홀로475번길 53,37.442388444,126.6737250497
1127,인천연학초등학교,인천광역시 미추홀구 주승로 20,37.443419399999996,126.67190500000001
1128,연평초등학교,인천광역시 옹진군 연평면 연평로137번길 101,37.6634884,125.70395559999999
1129,대청초등학교,인천광역시 옹진군 대청면 대청로244번길 110,37.8325787,124.6995157
1130,영흥초등학교,인천광역시 옹진군 영흥면 영흥로 440-8,37.2542151,126.46746740000002
1131,덕적초등학교,인천광역시 옹진군 덕적면 덕적남로 15,37.2255857,126.1475987
1132,북포초등학교,인천광역시 옹진군 백령면 가을길 117,37.9585564,124.66423459999999
1133,백령초등학교,인천광역시 옹진군 백령면 백령로316번길 91,37.97583579999999,124.71837479999999
1134,인천공항초등학교신도분교장,인천광역시 옹진군 북도면 신도로896번길 18-31,37.5203188,126.4429946
1135,인천삼목초등학교장봉분교장,인천광역시 옹진군 북도면 장봉로 553,37.5340595,126.3372395
1136,대청초등학교소청분교장,인천광역시 옹진군 대청면 소청동로 69-13,37.77372570000001,124.75369979999999
1137,인천주안남초등학교승봉분교장,인천광역시 옹진군 자월면 승봉로67번길 43-18,37.1706414,126.2969744
1138,인천남부초등학교이작분교장,인천광역시 옹진군 자월면 대이작로 60,37.1767640721,126.2527612266
1139,인천용현남초등학교자월분교장,인천광역시 옹진군 자월면 자월서로 177,37.2537741,126.30640600000001
1140,인천부평서초등학교,인천광역시 부평구 부평문화로53번길 19,37.494845700000006,126.7214001
1141,인천부곡초등학교,인천광역시 부평구 마장로272번길 73,37.503280100000005,126.70674369999999
1142,인천마곡초등학교,인천광역시 부평구 마곡로27번길 16,37.51184129999999,126.69778020000001
1143,인천대정초등학교,인천광역시 부평구 안남로 115,37.4936793,126.70926270000001
1144,인천청천초등학교,인천광역시 부평구 산청로127번길 12-5,37.520382399999995,126.700775
1145,인천갈산초등학교,인천광역시 부평구 갈월동로 55,37.5124666,126.7281169
1146,인천후정초등학교,인천광역시 부평구 영성서로 56,37.5229337,126.74351909999999
1147,인천영선초등학교,인천광역시 부평구 충선로 293,37.5155008,126.7345368
1148,인천진산초등학교,인천광역시 부평구 굴포로 194-10,37.5129355,126.74161000000001
1149,인천구산초등학교,인천광역시 부평구 부개로 93,37.5058999,126.73929979999998
1150,인천부일초등학교,인천광역시 부평구 부흥북로 175,37.501019,126.74148999999998
1151,인천부내초등학교,인천광역시 부평구 수변로 129,37.49811079999999,126.74169140000001
1152,인천부개서초등학교,인천광역시 부평구 부일로 39,37.490107,126.7352774
1153,인천부광초등학교,인천광역시 부평구 충선로 104,37.49908189999999,126.7366456
1154,인천일신초등학교,인천광역시 부평구 항동로75번길 36,37.4835281,126.74265520000002
1155,인천금마초등학교,인천광역시 부평구 일신로 88,37.478179499999996,126.74926940000002
1156,인천상정초등학교,인천광역시 부평구 상정로 50,37.479550399999994,126.6990227
1157,인천부평북초등학교,인천광역시 부평구 주부토로 292,37.5204552,126.72955490000001
1158,인천갈월초등학교,인천광역시 부평구 주부토로 165,37.509806299999994,126.7250686
1159,인천부개초등학교,인천광역시 부평구 마분로 9,37.4852903,126.7385857
1160,인천동수초등학교,인천광역시 부평구 동수로120번길 10,37.484258700000005,126.731102
1161,인천부원초등학교,인천광역시 부평구 원적로472번길 29,37.502211200000005,126.7195031
1162,인천부흥초등학교,인천광역시 부평구 부흥로 366,37.4977591,126.73255520000001
1163,인천부평동초등학교,인천광역시 부평구 부평대로 88,37.4991383,126.7225754
1164,인천부평남초등학교,인천광역시 부평구 경인로911번길 28,37.4887077258,126.7202044143
1165,인천산곡북초등학교,인천광역시 부평구 산청로 18,37.5111542,126.7020688
1166,인천산곡초등학교,인천광역시 부평구 길주로354번길 39,37.5068470496,126.70120385930001
1167,인천부마초등학교,인천광역시 부평구 안남로253번길 41,37.506431799999994,126.7057506
1168,인천미산초등학교,인천광역시 부평구 원적로 391,37.504454200000005,126.7097952
1169,인천산곡남초등학교,인천광역시 부평구 부흥로144번길 30,37.497211,126.7064345
1170,인천신촌초등학교,인천광역시 부평구 경원대로 1215,37.486839399999994,126.70668909999998
1171,인천하정초등학교,인천광역시 부평구 이규보로 14,37.4752034,126.7006997
1172,인천십정초등학교,인천광역시 부평구 배곶북로 10-6,37.4742768,126.69776499999999
1173,인천백운초등학교,인천광역시 부평구 아트센터로 130,37.4800604,126.7049031
1174,인천동암초등학교,인천광역시 부평구 동암남로35번길 4,37.4720209,126.7074838
1175,인천용마초등학교,인천광역시 부평구 세월천로30번길 58,37.5156365,126.70738109999999
1176,인천마장초등학교,인천광역시 부평구 안남로 266,37.5064316,126.70944109999998
1177,인천개흥초등학교,인천광역시 부평구 길주남로65번길 11(부평동),37.5048864,126.7280192
1178,인천삼산초등학교,인천광역시 부평구 후정동로 44,37.5209619,126.7388337
1179,인천한길초등학교,인천광역시 부평구 영성중로 32,37.5190668,126.7456447
1180,인천굴포초등학교,인천광역시 부평구 충선로234번길 19,37.5107999,126.7368415
1181,한일초등학교,인천광역시 부평구 원적로 247,37.5057394398,126.6937076233
1182,인천명선초등학교,인천광역시 연수구 컨벤시아대로42번길 64,37.4026879,126.64733970000002
1183,인천축현초등학교,인천광역시 연수구 청량로 176,37.42266729999999,126.65439270000002
1184,인천송도초등학교,인천광역시 연수구 비류대로214번길 21,37.4266126,126.65848989999999
1185,인천능허대초등학교,인천광역시 연수구 한진로 12,37.4240843,126.64876720000001
1186,인천선학초등학교,인천광역시 연수구 선학로 67,37.4239933,126.70018219999999
1187,인천중앙초등학교,인천광역시 연수구 새말로 153,37.4171214,126.6859486
1188,인천연화초등학교,인천광역시 연수구 원인재로 150,37.411373100000006,126.68160300000001
1189,인천함박초등학교,인천광역시 연수구 함박뫼로 87,37.4241458,126.67721809999999
1190,인천청학초등학교,인천광역시 연수구 함박뫼로 25,37.420006,126.67070279999999
1191,인천청량초등학교,인천광역시 연수구 먼우금로 158,37.4119014,126.6746976
1192,인천연성초등학교,인천광역시 연수구 원인재로 116,37.408728,126.679422
1193,인천동춘초등학교,인천광역시 연수구 앵고개로 224,37.4098033,126.6686429
1194,인천동막초등학교,인천광역시 연수구 원인재로 36,37.402669700000004,126.6744017
1195,인천서면초등학교,인천광역시 연수구 먼우금로 54,37.4037816,126.67064640000001
1196,인천연수초등학교,인천광역시 연수구 원인재로 324,37.4225729,126.69458859999999
1197,인천문남초등학교,인천광역시 연수구 먼우금로 273,37.4209796,126.67939879999999
1198,인천옥련초등학교,인천광역시 연수구 한진로 30,37.42555479999999,126.6491564
1199,인천신정초등학교,인천광역시 연수구 아트센터대로97번길 72,37.3973198,126.6444017
1200,인천해송초등학교,인천광역시 연수구 인천타워대로54번길 46,37.3808113,126.64923229999998
1201,인천신송초등학교,인천광역시 연수구 해돋이로56번길 28,37.3903466,126.6578254
1202,인천먼우금초등학교,인천광역시 연수구 해돋이로84번길 33,37.3929405,126.65432009999999
1203,인천박문초등학교,인천광역시 연수구 봉재산로 138-22,37.403093,126.6654692
1204,인천남촌초등학교,인천광역시 남동구 남촌로 101,37.429721799999996,126.7131715
1205,인천성리초등학교,인천광역시 남동구 성리로 32-2,37.4457036,126.7101268
1206,인천정각초등학교,인천광역시 남동구 구월로 228,37.455731400000005,126.715356
1207,인천간석초등학교,인천광역시 남동구 석산로208번길 37,37.458837100000004,126.7161486
1208,인천구월서초등학교,인천광역시 남동구 문화서로77번길 14,37.4530386,126.69565049999999
1209,인천상아초등학교,인천광역시 남동구 석산로184번길 66,37.4574657,126.7121955
1210,상인천초등학교,인천광역시 남동구 석산로141번길 29,37.462034499999994,126.70696609999999
1211,인천석정초등학교,인천광역시 남동구 석정로539번길 32,37.467312799999995,126.69631820000001
1212,인천만수북초등학교,인천광역시 남동구 백범로180번길 25,37.4596226,126.72875970000001
1213,인천동부초등학교,인천광역시 남동구 만수서로33번길 25,37.46284910000001,126.7275621
1214,인천인수초등학교,인천광역시 남동구 인수로 3,37.4540085,126.7360094
1215,인천만수초등학교,인천광역시 남동구 소래로 652,37.447671,126.7345908
1216,인천도림초등학교,인천광역시 남동구 논고개로334번길 21,37.4191424,126.7318989
1217,인천은봉초등학교,인천광역시 남동구 은봉로312번길 11,37.405313799999995,126.72497379999999
1218,인천장도초등학교,인천광역시 남동구 포구로 112,37.4079265,126.7336358
1219,인천동방초등학교,인천광역시 남동구 논현역로 31,37.403095,126.71962909999999
1220,인천원동초등학교,인천광역시 남동구 논고개로 38,37.3968977062,126.730859219
1221,인천사리울초등학교,인천광역시 남동구 아암대로1437번길 50,37.3885769696,126.7235882
1222,인천고잔초등학교,인천광역시 남동구 아암대로1503번길 48,37.3929206959,126.72853356590001
1223,인천약산초등학교,인천광역시 남동구 간석로26번길 10,37.4673936,126.7100061
1224,인천주원초등학교,인천광역시 남동구 주안로259번길 28,37.464801,126.70043009999999
1225,인천송천초등학교,인천광역시 남동구 앵고개로815번길 45,37.3954334955,126.7226475232
1226,인천석천초등학교,인천광역시 남동구 남동대로 828,37.456344,126.7093145
1227,인천신월초등학교,인천광역시 남동구 인주대로776번길 14,37.447782700000005,126.723514
1228,인천구월초등학교,인천광역시 남동구 인주대로721번길 49,37.4516686,126.7168439
1229,인천소래초등학교,인천광역시 남동구 장도로 2,37.4041718,126.7344783
1230,인천논현초등학교,인천광역시 남동구 소래역로 102,37.4051582,126.7308797
1231,인천논곡초등학교,인천광역시 남동구 함박뫼로 429,37.4104236,126.71034109999998
1232,인천새말초등학교,인천광역시 남동구 만수로50번길 12,37.4599641,126.7338558
1233,인천조동초등학교,인천광역시 남동구 백범로124번길 164,37.4607896,126.7398587
1234,인천인동초등학교,인천광역시 남동구 백범로248번길 38,37.4624434,126.7225229
1235,인천장수초등학교,인천광역시 남동구 담방로 121,37.450413399999995,126.7419009
1236,인천담방초등학교,인천광역시 남동구 매소홀로 1027,37.44029329999999,126.73652539999999
1237,인천남동초등학교,인천광역시 남동구 장승남로33번길 10,37.4445609,126.7369723
1238,인천서창초등학교,인천광역시 남동구 장아산로174번길 8,37.435981899999994,126.75008729999999
1239,경인교육대학교부설초등학교,인천광역시 계양구 안남로 612,37.5374535,126.7124696
1240,인천효성동초등학교,인천광역시 계양구 새벌로171번길 4,37.533035,126.71645009999999
1241,인천효성남초등학교,인천광역시 계양구 새벌로 125,37.5283278,126.71584740000002
1242,인천효성초등학교,인천광역시 계양구 안남로 601,37.5369419,126.7103665
1243,인천해서초등학교,인천광역시 계양구 계산로 42-1,37.539932799999995,126.7177328
1244,인천안남초등학교,인천광역시 계양구 경명대로1114번길 26,37.5407443,126.73175330000001
1245,인천성지초등학교,인천광역시 계양구 아나지로247번길 8,37.5262356,126.71999679999999
1246,인천화전초등학교,인천광역시 계양구 효서로303번길 8,37.528624900000004,126.7312468
1247,인천서운초등학교,인천광역시 계양구 서운로 12,37.5268884,126.7447561
1248,인천신대초등학교,인천광역시 계양구 계산새로 133,37.539033399999994,126.7435375
1249,인천길주초등학교,인천광역시 계양구 용종로 90,37.541712200000006,126.742901
1250,인천병방초등학교,인천광역시 계양구 병방로 2,37.5467854,126.74079329999999
1251,인천양촌초등학교,인천광역시 계양구 장제로 954,37.5502845,126.74431170000001
1252,인천소양초등학교,인천광역시 계양구 박촌로 53,37.555936200000005,126.7424094
1253,인천당산초등학교,인천광역시 계양구 동양로 122,37.5588263,126.75905959999999
1254,인천귤현초등학교,인천광역시 계양구 귤현길 15,37.5685474,126.7470821
1255,인천계양초등학교,인천광역시 계양구 장제로 1288,37.5787336,126.7333767
1256,인천계산초등학교,인천광역시 계양구 경명대로 1005,37.5447139,126.7180875
1257,인천안산초등학교,인천광역시 계양구 임학서로 15,37.5444721,126.732256
1258,인천부평초등학교,인천광역시 계양구 어사대로 20,37.542022700000004,126.7237841
1259,인천부현초등학교,인천광역시 계양구 장제로755번길 30,37.536189,126.7316652
1260,인천부현동초등학교,인천광역시 계양구 용종로 5,37.5345472,126.74057479999999
1261,인천작전초등학교,인천광역시 계양구 주부토로 456,37.534965899999996,126.72867430000001
1262,인천작동초등학교,인천광역시 계양구 까치말로 35,37.528864399999996,126.7356736
1263,인천명현초등학교,인천광역시 계양구 봉오대로569번길 10,37.531778499999994,126.71259769999999
1264,인천효성서초등학교,인천광역시 계양구 봉오대로 457,37.5283631,126.6987409
1265,인천계양초등학교상야분교장,인천광역시 계양구 벌말로 572-1,37.5793364,126.78004320000001
1266,인천해원초등학교,인천광역시 서구 청라사파이어로140번길 5,37.5276113,126.626092449
1267,인천경명초등학교,인천광역시 서구 크리스탈로 130,37.536999405900005,126.63731440000001
1268,인천공촌초등학교,인천광역시 서구 심곡로188번길 21,37.5484833,126.6840378
1269,인천간재울초등학교,인천광역시 서구 승학로 433,37.56027,126.672335
1270,인천경서초등학교,인천광역시 서구 경서로31번길 31,37.5565611,126.6510434
1271,인천청라초등학교,인천광역시 서구 청라에메랄드로 139,37.5377499531,126.655695414
1272,인천초은초등학교,인천광역시 서구 청라에메랄드로 33,37.5284232754,126.6558477
1273,인천양지초등학교,인천광역시 서구 승학로197번길 11,37.5400052,126.6711558
1274,인천심곡초등학교,인천광역시 서구 심곡로 114,37.5434132,126.68275520000002
1275,인천신석초등학교,인천광역시 서구 새오개로 9,37.5108159,126.66437350000001
1276,인천석남초등학교,인천광역시 서구 서달로130번길 4,37.5103315,126.6800981
1277,인천천마초등학교,인천광역시 서구 서달로 58-5,37.5049287,126.67928470000001
1278,인천봉수초등학교,인천광역시 서구 봉오대로267번길 11-4,37.5263864931,126.67868567200001
1279,인천신현북초등학교,인천광역시 서구 원창로 147,37.5187362,126.66631940000002
1280,인천가림초등학교,인천광역시 서구 장고개로293번길 29,37.49022,126.68085490000001
1281,인천봉화초등학교,인천광역시 서구 건지로250번길 43,37.4954765,126.6703195
1282,인천건지초등학교,인천광역시 서구 건지로318번길 39,37.4952973,126.677847
1283,인천능내초등학교,인천광역시 서구 검단로540번길 23,37.6027403,126.6660939
1284,인천검단초등학교,인천광역시 서구 마전로115번길 24,37.610791600000006,126.6697067
1285,인천완정초등학교,인천광역시 서구 완정로 99,37.5983115,126.6643228
1286,인천불로초등학교,인천광역시 서구 검단로744번1길 50,37.6139554,126.68918970000001
1287,인천목향초등학교,인천광역시 서구 고산후로 377,37.61631920000001,126.69462720000001
1288,인천왕길초등학교,인천광역시 서구 봉수대로1440번길 20,37.601981,126.65103429999999
1289,인천단봉초등학교,인천광역시 서구 단봉로 122,37.5981727,126.63849569999999
1290,인천원당초등학교,인천광역시 서구 원당대로820번길 16,37.5925143,126.6912702
1291,인천발산초등학교,인천광역시 서구 고산후로78번길 6,37.5902717,126.69881629999999
1292,인천창신초등학교,인천광역시 서구 고산후로161번길 6,37.5988804,126.69820209999999
1293,인천금곡초등학교,인천광역시 서구 완정로228번길 19,37.605448100000004,126.6509388
1294,인천가석초등학교,인천광역시 서구 서달로 174,37.5143383,126.67954590000001
1295,인천가좌초등학교,인천광역시 서구 장고개로309번길 5,37.490159999999996,126.6839565
1296,인천가정초등학교,인천광역시 서구 장고개로 336-1,37.491587,126.68846940000002
1297,인천당하초등학교,인천광역시 서구 청마로 144,37.5901155,126.67803159999998
1298,인천마전초등학교,인천광역시 서구 완정로34번길 23,37.5976877,126.6706554
1299,인천석남서초등학교,인천광역시 서구 건지로249번길 6,37.500018,126.67074860000001
1300,인천가현초등학교,인천광역시 서구 염곡로 417,37.5223152,126.66849609999998
1301,인천신현초등학교,인천광역시 서구 율도로77번길 1,37.5142378,126.66994440000002
1302,인천서곶초등학교,인천광역시 서구 대평로56번길 9,37.5481266,126.669605
1303,인천검암초등학교,인천광역시 서구 승학로599번길 45,37.5675739,126.6784991
1304,인천은지초등학교,인천광역시 서구 승학로572번길 22,37.56451129999999,126.6849462
1305,길상초등학교,인천광역시 강화군 길상면 삼랑성길 22,37.638796500000005,126.49067279999998
1306,양도초등학교,인천광역시 강화군 양도면 강화남로 1036,37.6893455,126.4194245
1307,조산초등학교,인천광역시 강화군 양도면 강화남로 510,37.6537644,126.43774950000001
1308,화도초등학교,인천광역시 강화군 화도면 마니산로 717,37.6325124,126.4188947
1309,대월초등학교,인천광역시 강화군 강화읍 대월로 216,37.7615671,126.489521
1310,갑룡초등학교,인천광역시 강화군 강화읍 갑룡길 88,37.7444414,126.50257549999999
1311,강화초등학교,인천광역시 강화군 강화읍 북문길 36,37.7510216,126.48551119999999
1312,합일초등학교,인천광역시 강화군 강화읍 합일길 3,37.7448958,126.4824554
1313,송해초등학교,인천광역시 강화군 송해면 전망대로 93-12,37.7703167,126.460177
1314,선원초등학교,인천광역시 강화군 선원면 강화동로 924,37.715306299999995,126.4795186
1315,불은초등학교,인천광역시 강화군 불은면 불은남로544번길 9,37.6843432,126.48678059999999
1316,삼성초등학교,인천광역시 강화군 불은면 중앙로 609,37.708226700000004,126.4491754
1317,하점초등학교,인천광역시 강화군 하점면 강화대로 1190,37.774273799999996,126.41266340000001
1318,명신초등학교,인천광역시 강화군 하점면 강화서로560번길 22,37.7447566,126.38974669999999
1319,양사초등학교,인천광역시 강화군 양사면 덕하로 145,37.804026799999995,126.4204328
1320,내가초등학교,인천광역시 강화군 내가면 강화서로 264,37.7205604,126.39013909999998
1321,해명초등학교,인천광역시 강화군 삼산면 삼산남로 345,37.6683102,126.36251429999999
1322,삼산초등학교,인천광역시 강화군 삼산면 삼산북로 451,37.7033686,126.32180349999999
1323,교동초등학교,인천광역시 강화군 교동면 대룡안길 29,37.7836953704,126.28171059370001
1324,교동초등학교지석분교장,인천광역시 강화군 교동면 교동북로 275-1,37.801112700000004,126.25676659999999
1325,서도초등학교,인천광역시 강화군 서도면 주문도길 173,37.6478235,126.25207009999998
1326,광주중앙초등학교,광주광역시 동구 제봉로 167,35.151290700000004,126.9181787
1327,광주계림초등학교,광주광역시 동구 중앙로 320,35.1600652,126.92136640000001
1328,광주장원초등학교,광주광역시 동구 무등로 533,35.157459,126.93786770000001
1329,광주동산초등학교,광주광역시 동구 준법로 16,35.1486634,126.934795
1330,광주남초등학교,광주광역시 동구 지원로5번길 20,35.1262498,126.9331932
1331,율곡초등학교,광주광역시 동구 밤실로 142,35.1603439,126.9360696
1332,광주산수초등학교,광주광역시 동구 산수길 28,35.155840500000004,126.9280513
1333,광주서석초등학교,광주광역시 동구 제봉로82번길 26,35.1471692,126.92473559999999
1334,광주용산초등학교,광주광역시 동구 화산로 334,35.11886679999999,126.9315187
1335,광주학운초등학교,광주광역시 동구 의재로 181,35.13300170000001,126.94696110000001
1336,살레시오초등학교,광주광역시 서구 전평길 40-1,35.118495468,126.85045922370001
1337,빛고을초등학교,광주광역시 서구 동천로 7,35.1691454,126.85946750000001
1338,광림초등학교,광주광역시 서구 하남대로710번길 19,35.169377600000004,126.8705537
1339,광주교육대학교광주부설초등학교,광주광역시 북구 필문대로 55,35.1647146783,126.925698811
1340,광주수창초등학교,광주광역시 북구 금남로 99,35.1566608,126.9073159
1341,용주초등학교,광주광역시 북구 용주로 15,35.181527700000004,126.8994435
1342,광주우산초등학교,광주광역시 북구 서방로63번길 67,35.1758843,126.92051119999999
1343,광주문화초등학교,광주광역시 북구 군왕로 135,35.1736446,126.9314492
1344,문산초등학교,광주광역시 북구 문산로 66,35.187168299999996,126.92516090000002
1345,문흥초등학교,광주광역시 북구 면앙로 19,35.1807662,126.9144494
1346,문정초등학교,광주광역시 북구 대천로169번길 7,35.1892117,126.92137920000002
1347,문흥중앙초등학교,광주광역시 북구 문산로 17,35.183731099999996,126.92103
1348,문우초등학교,광주광역시 북구 능안로 7,35.1861212646,126.9164071
1349,오정초등학교,광주광역시 북구 대천로 55,35.1857965,126.91217820000001
1350,매곡초등학교,광주광역시 북구 초당로 25,35.194386200000004,126.8942871
1351,일곡초등학교,광주광역시 북구 설죽로 530,35.207300700000005,126.8985928
1352,일신초등학교,광주광역시 북구 일곡마을로 187,35.211126,126.89510700000001
1353,광주동운초등학교,광주광역시 북구 북문대로8번길 21,35.1749481,126.88417720000001
1354,광주운암초등학교,광주광역시 북구 서강로 79-14,35.180518299999996,126.87088600000001
1355,양지초등학교,광주광역시 북구 자라봉로63번길 16,35.208402299999996,126.88120420000001
1356,광주양산초등학교,광주광역시 북구 연양로 33,35.2072055,126.8715139
1357,본촌초등학교,광주광역시 북구 본촌택지로30번길 22,35.2149028,126.88147250000002
1358,광주지산초등학교,광주광역시 북구 하서로 637,35.2312917,126.8856935
1359,광주동초등학교,광주광역시 북구 석곡로 527,35.2058302,126.95085970000001
1360,각화초등학교,광주광역시 북구 각화대로39번길 10,35.1822157,126.93616440000001
1361,한울초등학교,광주광역시 북구 유림로160번길 15,35.176405200000005,126.86634340000002
1362,동림초등학교,광주광역시 북구 동림용산로 7,35.187427299999996,126.86790829999998
1363,광주풍향초등학교,광주광역시 북구 군왕로51번길 77(두암동),35.1676076,126.92782340000002
1364,삼정초등학교,광주광역시 북구 밤실로208번길 55,35.1662467,126.9363341
1365,하백초등학교,광주광역시 북구 하백로5번길 10,35.1884266,126.88919740000001
1366,삼각초등학교,광주광역시 북구 송해로 21,35.200579299999994,126.90048279999999
1367,광주용봉초등학교,광주광역시 북구 서암대로144번길 11,35.1689271,126.90025770000001
1368,신용초등학교,광주광역시 북구 첨단연신로 232-10,35.2106296123,126.8572493
1369,용두초등학교,광주광역시 북구 임방울대로1041번길 25,35.2150419,126.87072340000002
1370,오치초등학교,광주광역시 북구 설죽로 290,35.18560479999999,126.89918940000001
1371,광주서산초등학교,광주광역시 북구 우치로 263,35.188604999999995,126.90435990000002
1372,태봉초등학교,광주광역시 북구 청계로 33,35.1762658,126.8923149
1373,무등초등학교,광주광역시 북구 면앙로 99,35.178870200000006,126.9229328
1374,대자초등학교,광주광역시 북구 대자로 5,35.1736711,126.87283149999999
1375,경양초등학교,광주광역시 북구 북문대로98번길 20,35.1801283,126.8788992
1376,서일초등학교,광주광역시 북구 설죽로 590,35.212127100000004,126.89863970000002
1377,일동초등학교,광주광역시 북구 일곡택지로 45,35.2059616,126.89348770000001
1378,광주서림초등학교,광주광역시 북구 서림로 113,35.162366999999996,126.8989926
1379,광주효동초등학교,광주광역시 북구 서양로 99,35.16949879999999,126.91236780000001
1380,광주중흥초등학교,광주광역시 북구 경양로197번길 25,35.1608015,126.91328259999999
1381,두암초등학교,광주광역시 북구 참판로 130,35.1696058,126.93404109999999
1382,연제초등학교,광주광역시 북구 하서로229번길 47,35.196360299999995,126.8737945
1383,광주북초등학교,광주광역시 북구 하서로 985,35.2463498,126.91452890000001
1384,광주동초등학교충효분교장,광주광역시 북구 충효샘길 14-30,35.181219,127.00269009999998
1385,송학초등학교,광주광역시 서구 눌재로 408,35.1130463887,126.8303713
1386,금부초등학교,광주광역시 서구 금화로115번길 22,35.1350014,126.8615769
1387,만호초등학교,광주광역시 서구 금화로 53,35.132611499999996,126.8543678
1388,풍암초등학교,광주광역시 서구 풍암중앙로 8,35.123396899999996,126.87550630000001
1389,운리초등학교,광주광역시 서구 풍암운리로23번길 5,35.1235482,126.86579499999999
1390,광주양동초등학교,광주광역시 서구 경열로121번길 5,35.1544270036,126.8989116623
1391,주월초등학교,광주광역시 서구 화운로 36,35.1445131,126.88369840000001
1392,광주화정초등학교,광주광역시 서구 월드컵4강로146번길 10,35.149105,126.87146170000001
1393,성진초등학교,광주광역시 서구 학생독립로 16,35.1437629132,126.86625881100001
1394,유촌초등학교,광주광역시 서구 내방로 153,35.159405799999995,126.85778729999998
1395,효광초등학교,광주광역시 서구 광천2길 33,35.16690379999999,126.8797328
1396,광주상무초등학교,광주광역시 서구 금호운천길 67,35.140995399999994,126.8548149
1397,금호초등학교,광주광역시 서구 금부로95번길 26-11,35.1428568,126.858971
1398,마재초등학교,광주광역시 서구 마재로 27,35.1306873,126.86286329999999
1399,광주광천초등학교,광주광역시 서구 월산로 266,35.1595092,126.88936899999999
1400,계수초등학교,광주광역시 서구 상무시민로 51,35.1559239,126.8448729
1401,치평초등학교,광주광역시 서구 상무평화로 43,35.1488288,126.8436101
1402,운천초등학교,광주광역시 서구 치평로 59,35.152735899999996,126.8465905
1403,금당초등학교,광주광역시 서구 풍암중앙로 83,35.1270857,126.88329660000001
1404,신암초등학교,광주광역시 서구 풍암2로 56,35.1227011,126.88122479999998
1405,광주서초등학교,광주광역시 서구 화운로194번길 6,35.155493299999996,126.8778939
1406,염주초등학교,광주광역시 서구 염화로134번길 28,35.1410781,126.87884790000001
1407,화정남초등학교,광주광역시 서구 염화로 37,35.138234600000004,126.87215159999998
1408,화개초등학교,광주광역시 서구 화개중앙로 48,35.1249663,126.8567541
1409,서광초등학교,광주광역시 서구 상무오월로38번길 36,35.154579600000005,126.86457050000001
1410,광주극락초등학교,광주광역시 서구 상무버들로54번길 5,35.1659274,126.8577027
1411,유덕초등학교,광주광역시 서구 상무버들로16번길 6-10,35.1651798,126.86255159999999
1412,광주대성초등학교,광주광역시 남구 서동로2번길 8,35.1442039,126.905432
1413,광주학강초등학교,광주광역시 남구 양림로 92,35.1379672,126.9187841
1414,불로초등학교,광주광역시 남구 제석로80번길 58-5,35.120628499999995,126.9141127
1415,봉선초등학교,광주광역시 남구 봉선중앙로118번길 4,35.1310999,126.91208059999998
1416,대촌중앙초등학교,광주광역시 남구 고싸움로152번길 1,35.0826842,126.8333223
1417,무학초등학교,광주광역시 남구 월지길 7,35.066505799999995,126.8043176
1418,광주월산초등학교,광주광역시 남구 월산로116번길 6,35.1477789,126.8981502
1419,광주농성초등학교,광주광역시 남구 금화로481번길 7,35.1483448,126.8906598
1420,광주백운초등학교,광주광역시 남구 독립로 51,35.1378125,126.90048870000001
1421,광주봉주초등학교,광주광역시 남구 봉주길 32,35.1366963,126.889781
1422,진남초등학교,광주광역시 남구 효우로60번길 12,35.1090814,126.9023467
1423,광주효덕초등학교,광주광역시 남구 화산로 7,35.1129408,126.8980398
1424,광주방림초등학교,광주광역시 남구 큰방림길 20,35.1338094,126.9208139
1425,유안초등학교,광주광역시 남구 봉선로175번길 16,35.125424100000004,126.91451310000001
1426,장산초등학교,광주광역시 남구 회서로 27,35.1308529,126.895076
1427,광주제석초등학교,광주광역시 남구 봉선로51번길 14,35.1281135,126.906558
1428,진제초등학교,광주광역시 남구 서문대로 654,35.1176315,126.8990189
1429,진월초등학교,광주광역시 남구 광복마을4길 40,35.1208561,126.89333640000001
1430,조봉초등학교,광주광역시 남구 봉선로144번길 8,35.1217659,126.91070249999999
1431,광주송원초등학교,광주광역시 남구 송암로 73,35.108546399999994,126.87156809999999
1432,광주삼육초등학교,광주광역시 남구 회서로 30,35.1294612,126.89385049999999
1433,선운초등학교,광주광역시 광산구 선운중앙로 11,35.1494252845,126.7749522276
1434,송정서초등학교,광주광역시 광산구 상무대로 114,35.1297703,126.78755349999999
1435,어룡초등학교,광주광역시 광산구 소촌로 122,35.155074400000004,126.7933254
1436,송정중앙초등학교,광주광역시 광산구 어등대로653번길 90,35.147821,126.7950358
1437,산정초등학교,광주광역시 광산구 목련로22번길 11,35.171907899999994,126.8010679
1438,대반초등학교,광주광역시 광산구 사암로340번길 19,35.175650399999995,126.80912279999998
1439,월곡초등학교,광주광역시 광산구 월곡산정로 107,35.1666351,126.81492820000001
1440,영천초등학교,광주광역시 광산구 목련로 123,35.1726821,126.8118655
1441,하남초등학교,광주광역시 광산구 하남대로54번길 10,35.1793622,126.7987072
1442,장덕초등학교,광주광역시 광산구 수등로 27,35.186323,126.8132952
1443,고실초등학교,광주광역시 광산구 풍영로 300,35.198235700000005,126.81616480000001
1444,비아초등학교,광주광역시 광산구 비아동원촌길 19-20,35.2221583,126.8259165
1445,첨단초등학교,광주광역시 광산구 임방울대로 727-20,35.219998600000004,126.8379855
1446,수완초등학교,광주광역시 광산구 장덕로 143,35.197820799999995,126.8241914
1447,월봉초등학교,광주광역시 광산구 산월로 101,35.20934129999999,126.84807269999999
1448,봉산초등학교,광주광역시 광산구 산월로 57,35.2093949,126.8438763
1449,신창초등학교,광주광역시 광산구 신창로162번길 10,35.1978689,126.84114540000002
1450,수문초등학교,광주광역시 광산구 신창로105번길 9,35.19443270000001,126.83689199999999
1451,풍영초등학교,광주광역시 광산구 수등로258번길 53,35.1830968,126.8404438
1452,진만초등학교,광주광역시 광산구 목련로394번길 40-10,35.1833161,126.8340882
1453,큰별초등학교,광주광역시 광산구 수등로 115,35.1832961,126.8220511
1454,선창초등학교,광주광역시 광산구 신창로35번길 67,35.1879737,126.83465279999999
1455,목련초등학교,광주광역시 광산구 목련로153번길 20,35.1725704,126.81536899999999
1456,운남초등학교,광주광역시 광산구 하남대로 248-22,35.1773745,126.819774
1457,금구초등학교,광주광역시 광산구 임방울대로165번길 60,35.1764615,126.8143432
1458,임곡초등학교,광주광역시 광산구 하림길 26,35.2207994,126.7469212
1459,본량초등학교,광주광역시 광산구 용진로 323,35.1808549,126.72269779999999
1460,삼도초등학교,광주광역시 광산구 용진로 9,35.164039100000004,126.70056909999998
1461,평동초등학교,광주광역시 광산구 평동로 741,35.127261299999994,126.7554949
1462,동곡초등학교,광주광역시 광산구 동곡로 151-17,35.098349,126.7728409
1463,도산초등학교,광주광역시 광산구 송정외로 6,35.1261906,126.79175179999999
1464,송정초등학교,광주광역시 광산구 송도로208번길 25,35.1314644,126.79637190000001
1465,신가초등학교,광주광역시 광산구 신가로40번길 21,35.183489200000004,126.827831
1466,송정동초등학교,광주광역시 광산구 사암로27번길 58,35.1454216,126.8047787
1467,어등초등학교,광주광역시 광산구 월곡산정로 50,35.1652328,126.8076118
1468,마지초등학교,광주광역시 광산구 목련로219번길 104,35.1759467,126.824041
1469,미산초등학교,광주광역시 광산구 첨단중앙로181번길 70,35.2197641,126.834011
1470,정암초등학교,광주광역시 광산구 첨단과기로 104,35.2227323,126.8375824
1471,월계초등학교,광주광역시 광산구 첨단내촌로 83,35.2134525,126.8351663
1472,산월초등학교,광주광역시 광산구 산월로9번길 36,35.2107054,126.8389894
1473,하남중앙초등학교,광주광역시 광산구 산정로6번길 21-20,35.1685552,126.8054074
1474,성덕초등학교,광주광역시 광산구 풍영로 313,35.199090399999996,126.8146195
1475,대전천동초등학교,대전광역시 동구 천동초등동길 60,36.315909000000005,127.4455571
1476,대전가오초등학교,대전광역시 동구 신기로 112,36.310291299999996,127.45867109999999
1477,대전흥룡초등학교,대전광역시 동구 동대전로256번길 21,36.345357899999996,127.4478138
1478,대전신흥초등학교,대전광역시 동구 동대전로46번길 76(신흥동),36.3258138,127.44033459999999
1479,대전대암초등학교,대전광역시 동구 동부로 55-61,36.323515,127.4571986
1480,대전은어송초등학교,대전광역시 동구 대전로 396,36.3023609,127.456823
1481,산내초등학교,대전광역시 동구 산내로 1292,36.2792377,127.469951
1482,산흥초등학교,대전광역시 동구 산내로 509,36.2290768,127.4485723
1483,동명초등학교,대전광역시 동구 천개동로 16,36.3741268,127.47443899999999
1484,세천초등학교,대전광역시 동구 옥천로 610-12,36.3417071,127.49385339999999
1485,동대전초등학교,대전광역시 동구 비래서로62번길 60,36.3519446,127.44927140000001
1486,대전가양초등학교,대전광역시 동구 가양로 61,36.341880100000004,127.44124120000001
1487,대전대동초등학교,대전광역시 동구 대동초등3길 21,36.3251073,127.4472892
1488,대전삼성초등학교,대전광역시 동구 대전로867번길 12,36.3372206487,127.42897122219999
1489,대전동서초등학교,대전광역시 동구 동서대로 1522,36.3411146,127.42258729999999
1490,대전현암초등학교,대전광역시 동구 현암로 19,36.3418804,127.4203113
1491,대전성남초등학교,대전광역시 동구 성남로32번길 5,36.3436481,127.4295625
1492,대전대룡초등학교,대전광역시 동구 백룡로 123,36.3297399,127.4557975
1493,대전용운초등학교,대전광역시 동구 용운로 204,36.3263105,127.463755
1494,대전용전초등학교,대전광역시 동구 계족로505번길 49,36.3562799,127.4304865
1495,대전자양초등학교,대전광역시 동구 계족로 184-55,36.3339020756,127.4434145852
1496,대전동광초등학교,대전광역시 동구 백룡로11번길 20,36.3372844,127.449926
1497,대전판암초등학교,대전광역시 동구 옥천로180번길 32,36.3152631,127.46077369999999
1498,대전대신초등학교,대전광역시 중구 솔밭로 16,36.3165194,127.41939440000002
1499,대전중촌초등학교,대전광역시 중구 대종로 684,36.3412016,127.41104569999999
1500,대전옥계초등학교,대전광역시 중구 모암로 35,36.3011924,127.44905490000001
1501,대전글꽃초등학교,대전광역시 중구 계룡로918번길 97,36.3186792,127.41027079999999
1502,대전원평초등학교,대전광역시 중구 계백로1615번길 46,36.3216073,127.39968640000001
1503,대전버드내초등학교,대전광역시 중구 태평로 21,36.319250399999994,127.39156659999999
1504,대전태평초등학교,대전광역시 중구 유천로 117,36.3229032,127.3950956
1505,대전문성초등학교,대전광역시 중구 유등천동로292번길 89-14,36.308812100000004,127.3904615
1506,대전산성초등학교,대전광역시 중구 대둔산로 332,36.299217799999994,127.3863257
1507,산서초등학교,대전광역시 중구 남달미로 87,36.267064700000006,127.4094249
1508,대전대흥초등학교,대전광역시 중구 수도산로 12,36.319292100000006,127.42577240000001
1509,대전목양초등학교,대전광역시 중구 목동로 69,36.3367817,127.404831
1510,대전목동초등학교,대전광역시 중구 목중로19번길 70(목동),36.334695200000006,127.40825430000001
1511,대전동문초등학교,대전광역시 중구 문화로 200,36.3142576,127.40684109999998
1512,대전대문초등학교,대전광역시 중구 송리로 11,36.3064387,127.4007368
1513,대전문화초등학교,대전광역시 중구 문화로78번안길 70,36.3113634,127.39804869999999
1514,대전보성초등학교,대전광역시 중구 보문산로141번길 34,36.306686,127.3965081
1515,대전보운초등학교,대전광역시 중구 대종로315번길 42,36.3143325,127.4322483
1516,대전문창초등학교,대전광역시 중구 문창로 55,36.3172917,127.4336568
1517,대전석교초등학교,대전광역시 중구 대종로204번길 12,36.3082273,127.4456738
1518,대전선화초등학교,대전광역시 중구 선화로 159,36.33243770000001,127.4244902057
1519,대전중앙초등학교,대전광역시 중구 선화로43번길 99,36.3310809,127.41442669999999
1520,대전오류초등학교,대전광역시 중구 오류로 46,36.32519,127.4046841
1521,서대전초등학교,대전광역시 중구 선화로 17,36.326691499999995,127.410676
1522,대전유평초등학교,대전광역시 중구 수침로 123,36.330186700000006,127.3972532307
1523,대전신평초등학교,대전광역시 중구 유등천동로 478,36.3235339,127.38974920000001
1524,대전성모초등학교,대전광역시 중구 대흥로 62,36.322771,127.4189482
1525,대전대화초등학교,대전광역시 대덕구 대화로 242-36,36.3625497,127.4113072
1526,대전대양초등학교,대전광역시 대덕구 송촌로 67,36.3614072,127.44024590000001
1527,대전양지초등학교,대전광역시 대덕구 쌍청당로 45,36.3653598,127.433692
1528,대전법동초등학교,대전광역시 대덕구 계족로664번길 74,36.3695937,127.43231850000001
1529,와동초등학교,대전광역시 대덕구 신탄진로 189,36.396818599999996,127.4222202
1530,장동초등학교,대전광역시 대덕구 장동로 223-37,36.4149996,127.4356646
1531,신탄진초등학교,대전광역시 대덕구 석봉로3번길 50,36.449216,127.4223227
1532,대전목상초등학교,대전광역시 대덕구 대덕대로1486번길 117,36.445702600000004,127.412451
1533,새일초등학교,대전광역시 대덕구 덕암로125번길 15,36.4316916,127.41954950000002
1534,대전중리초등학교,대전광역시 대덕구 중리북로 20,36.3678159,127.42711840000001
1535,대전비래초등학교,대전광역시 대덕구 우암로492번안길 65,36.3635288,127.452906
1536,대전매봉초등학교,대전광역시 대덕구 선비마을로 155,36.3693434,127.43740279999999
1537,대전송촌초등학교,대전광역시 대덕구 동춘당로54번길 35,36.3648203,127.4439321
1538,신탄진용정초등학교,대전광역시 대덕구 대청로 65,36.4539743,127.43584640000002
1539,대전석봉초등학교,대전광역시 대덕구 신탄진남로 20,36.4469723,127.43463329999999
1540,대전화정초등학교,대전광역시 대덕구 한밭대로1024번길 20(오정동),36.357206,127.41199479999999
1541,대전동산초등학교,대전광역시 대덕구 동산초교로63번길 50,36.3505409,127.4215039
1542,대전동도초등학교,대전광역시 대덕구 한남로150번길 27,36.3479411,127.4125135
1543,회덕초등학교,대전광역시 대덕구 대전로 1350,36.3748114,127.4217054
1544,대전중원초등학교,대전광역시 대덕구 중리로64번길 45,36.3656638,127.4275041
1545,기성초등학교,대전광역시 서구 기성초교길 42,36.248798,127.3376126
1546,대전수미초등학교,대전광역시 서구 괴곡길 42,36.295286423200004,127.3615412433
1547,대전서원초등학교,대전광역시 서구 문정로 279,36.359463899999994,127.3941743
1548,대전둔원초등학교,대전광역시 서구 대덕대로112번길 10,36.3429228,127.3749888
1549,대전갈마초등학교,대전광역시 서구 월평동로 2,36.356774,127.36932820000001
1550,대전내동초등학교,대전광역시 서구 동서대로1063번길 13,36.3309531,127.37926359999999
1551,대전변동초등학교,대전광역시 서구 유등로 373,36.3252381,127.3856908
1552,대전백운초등학교,대전광역시 서구 계룡로576번길 56,36.340760499999995,127.3845061
1553,대전탄방초등학교,대전광역시 서구 탄방로 15,36.3459363,127.3910094
1554,대전원앙초등학교,대전광역시 서구 관저북로 97,36.311243100000006,127.3370243
1555,대전갑천초등학교,대전광역시 서구 월평동로 61,36.360792100000005,127.3676845
1556,대전월평초등학교,대전광역시 서구 월평서로 22,36.3556126,127.3578662
1557,대전도안초등학교,대전광역시 서구 원도안로 200,36.3216471,127.34466880000001
1558,대전샘머리초등학교,대전광역시 서구 유등로 879,36.3631747,127.39336670000002
1559,가수원초등학교,대전광역시 서구 벌곡로 1359,36.3027731,127.35280220000001
1560,대전가장초등학교,대전광역시 서구 가장로 150,36.3307097,127.3883757
1561,대전봉산초등학교,대전광역시 서구 신갈마로141번길 45,36.345201,127.36572439999999
1562,대전선암초등학교,대전광역시 서구 관저중로 61,36.2974217,127.333991
1563,대전구봉초등학교,대전광역시 서구 관저로 75,36.299794899999995,127.3299654
1564,대전금동초등학교,대전광역시 서구 관저로 45,36.297725299999996,127.3263858
1565,대전관저초등학교,대전광역시 서구 관저동로 161,36.3064008,127.33997040000001
1566,대전느리울초등학교,대전광역시 서구 관저로 196,36.298446999999996,127.34417140000002
1567,대전도마초등학교,대전광역시 서구 배재로172번길 23,36.3237958,127.3712413
1568,대전유천초등학교,대전광역시 서구 제비네6길 69,36.3148624,127.37560459999999
1569,대전둔산초등학교,대전광역시 서구 둔산로74번길 20,36.3501609,127.3814486
1570,한밭초등학교,대전광역시 서구 문정로 221,36.3544859,127.39428529999999
1571,대전만년초등학교,대전광역시 서구 만년남로 14,36.3671313,127.3772402
1572,대전둔천초등학교,대전광역시 서구 만년로 3,36.3684026,127.37393929999999
1573,대전서부초등학교,대전광역시 서구 동서대로 968,36.3331629,127.36947579999999
1574,대전복수초등학교,대전광역시 서구 복수중로34번길 29,36.307501,127.3775666
1575,대전문정초등학교,대전광역시 서구 문정로 180,36.3502855,127.3961116
1576,대전삼천초등학교,대전광역시 서구 둔산북로 232-33,36.3542438,127.40096340000001
1577,대전성천초등학교,대전광역시 서구 갈마역로 139,36.3632346,127.3735408
1578,대전성룡초등학교,대전광역시 서구 갈마역로 125,36.3619316,127.3735855
1579,대전정림초등학교,대전광역시 서구 정림로 32,36.303647999999995,127.36655790000002
1580,대전신계초등학교,대전광역시 서구 복수동로 26,36.301889700000004,127.3780278
1581,대전삼육초등학교,대전광역시 서구 도림1길 15,36.31180689999999,127.3728106
1582,대전상원초등학교,대전광역시 유성구 상대서로 46,36.3423922098,127.33326471
1583,대전계산초등학교,대전광역시 유성구 학하서로 74,36.34339979999999,127.3005486
1584,대전반석초등학교,대전광역시 유성구 반석동로 30,36.3899916,127.31307290000001
1585,외삼초등학교,대전광역시 유성구 반석동로 63,36.3927409,127.3105094
1586,대전자운초등학교,대전광역시 유성구 자운로97번길 380,36.4125133419,127.3374305518
1587,대전교촌초등학교,대전광역시 유성구 진잠로149번길 42,36.3058894,127.31680320000001
1588,대전대정초등학교,대전광역시 유성구 대정로28번길 55,36.3151997,127.3233658
1589,진잠초등학교,대전광역시 유성구 진잠로59번길 53,36.2991404,127.3149893
1590,대전봉명초등학교,대전광역시 유성구 계룡로132번길 62,36.349605161999996,127.34346599999999
1591,대전장대초등학교,대전광역시 유성구 문화원로19번길 16,36.361724200000005,127.33958270000001
1592,유성초등학교,대전광역시 유성구 장대로71번길 12,36.3625908411,127.33273576959999
1593,대전상대초등학교,대전광역시 유성구 월드컵대로 322,36.3472735,127.3366076
1594,흥도초등학교,대전광역시 유성구 원신흥남로 20,36.3344645931,127.3386975203
1595,대전원신흥초등학교,대전광역시 유성구 원신흥로55번길 37,36.3410070602,127.342522029
1596,덕송초등학교,대전광역시 유성구 현충원로 265,36.361358200000005,127.30168379999999
1597,대전노은초등학교,대전광역시 유성구 노은동로99번길 35,36.3688281,127.321476
1598,대전수정초등학교,대전광역시 유성구 노은서로 62,36.365839,127.31347360000001
1599,대전상지초등학교,대전광역시 유성구 노은동로 165,36.3752255,127.3221809
1600,대전지족초등학교,대전광역시 유성구 노은서로 238,36.380599200000006,127.31731059999998
1601,봉암초등학교,대전광역시 유성구 궁동로 21,36.3641745,127.3475817
1602,대덕초등학교,대전광역시 유성구 대덕대로556번길 102,36.38513270000001,127.38185020000002
1603,금성초등학교,대전광역시 유성구 신성로72번길 5,36.3894242,127.3500226
1604,대전하기초등학교,대전광역시 유성구 송림로19번길 32,36.3888161,127.32168840000001
1605,대전송림초등학교,대전광역시 유성구 노은로410번길 123-14,36.3888182,127.33231229999998
1606,학하초등학교,대전광역시 유성구 진잠옛로 165,36.3345274,127.3120909
1607,문지초등학교,대전광역시 유성구 전민로 41,36.39591970000001,127.3994966
1608,대전용산초등학교,대전광역시 유성구 배울2로 101,36.42021629999999,127.3950711
1609,구즉초등학교,대전광역시 유성구 구룡달전로 34,36.4406044,127.3824649
1610,대전동화초등학교,대전광역시 유성구 관평2로 43,36.422954499999996,127.38961680000001
1611,대전관평초등학교,대전광역시 유성구 테크노4로 132,36.4237326,127.3870581
1612,대전배울초등학교,대전광역시 유성구 배울2로 8,36.4216841,127.38424170000002
1613,대전두리초등학교,대전광역시 유성구 와룡로 37,36.4286973,127.38194140000002
1614,대전송강초등학교,대전광역시 유성구 송강로42번길 6,36.43440579999999,127.3844067
1615,대전어은초등학교,대전광역시 유성구 농대로 46,36.364846,127.35390320000002
1616,대전전민초등학교,대전광역시 유성구 엑스포로466번길 42,36.3984539,127.4069237
1617,남선초등학교,대전광역시 유성구 계백로93번길 277-29,36.2875973,127.26462120000001
1618,옥성초등학교,울산광역시 중구 옥교11길 50,35.553005,129.3345963
1619,양사초등학교,울산광역시 중구 장춘로 95,35.557758899999996,129.31866000000002
1620,학성초등학교,울산광역시 중구 해오름1길 15,35.5600934,129.3423765
1621,남외초등학교,울산광역시 중구 남외3길 40,35.565476700000005,129.3492942
1622,병영초등학교,울산광역시 중구 병영성13길 2,35.574990299999996,129.345076
1623,삼일초등학교,울산광역시 중구 동천5길 18-9,35.5822237,129.34555509999998
1624,백양초등학교,울산광역시 중구 성안8길 10-5,35.5771777,129.3201223
1625,성안초등학교,울산광역시 중구 함월14길 19,35.576402200000004,129.3123936
1626,태화초등학교,울산광역시 중구 평동길 25,35.5588668,129.30606
1627,평산초등학교,울산광역시 중구 평산로 25,35.5688878,129.3379164
1628,약사초등학교,울산광역시 중구 화합로 478,35.5673241,129.33441570000002
1629,무룡초등학교,울산광역시 중구 약사로 50,35.56993789999999,129.33497859999997
1630,다운초등학교,울산광역시 중구 다운8길 5,35.5615121,129.2671308
1631,다전초등학교,울산광역시 중구 다운로 176,35.567711100000004,129.2684352
1632,내황초등학교,울산광역시 중구 내황13길 53,35.551980799999995,129.3492014
1633,복산초등학교,울산광역시 중구 장춘로 151-5,35.559624,129.324553
1634,우정초등학교,울산광역시 중구 평동길 40,35.5596744,129.3073074
1635,명정초등학교,울산광역시 중구 명난로 115,35.5526234,129.2895848
1636,함월초등학교,울산광역시 중구 학성1길 25,35.5589776,129.3293656
1637,동부초등학교,울산광역시 동구 남목13길 23,35.5451556,129.4275909
1638,화진초등학교,울산광역시 동구 방어진순환도로 543,35.491362,129.4256151
1639,서부초등학교,울산광역시 동구 봉수로 457,35.5261834,129.42303020000003
1640,주전초등학교,울산광역시 동구 동해안로 575,35.557970700000006,129.4569792
1641,양지초등학교,울산광역시 동구 양지6길 33,35.4973289,129.4212272
1642,화정초등학교,울산광역시 동구 대송9길 55,35.5019895,129.42069750000002
