학교ID,학교명,학교급구분,설립일자,설립형태,본교분교구분,운영상태,소재지지번주소,소재지도로명주소,시도교육청코드,시도교육청명,교육지원청코드,교육지원청명,생성일자,변경일자,위도,경도,데이터기준일자,제공기관코드,제공기관명,
B000001838,서울휘경초등학교,초등학교,1959-10-10,공립,본교,운영,서울특별시 동대문구 휘경동 302-2,서울특별시 동대문구 망우로6길 48,7010000,서울특별시교육청,7021000,서울특별시동부교육지원청,2013-11-29,2019-09-10,37.5857358,127.0581216,2019-09-16,7001220,한국교원대학교,
B000001839,서울동답초등학교,초등학교,1984-05-23,공립,본교,운영,서울특별시 동대문구 답십리동 2-24,서울특별시 동대문구 답십리로60길 12,7010000,서울특별시교육청,7021000,서울특별시동부교육지원청,2013-11-29,2019-09-10,37.5718166,127.0642055,2019-09-16,7001220,한국교원대학교,
B000001840,서울답십리초등학교,초등학교,1962-11-29,공립,본교,운영,서울특별시 동대문구 답십리동 274,서울특별시 동대문구 전농로3길 23,7010000,서울특별시교육청,7021000,서울특별시동부교육지원청,2013-11-29,2019-09-10,37.5690030,127.0554225,2019-09-16,7001220,한국교원대학교,
B000001841,서울신답초등학교,초등학교,1972-05-09,공립,본교,운영,서울특별시 동대문구 답십리동 463-13,서울특별시 동대문구 천호대로 177,7010000,서울특별시교육청,7021000,서울특별시동부교육지원청,2013-11-29,2019-09-10,37.5730006,127.0433994,2019-09-16,7001220,한국교원대학교,
B000001842,서울용두초등학교,초등학교,1948-11-01,공립,본교,운영,서울특별시 동대문구 용두동 237-1,서울특별시 동대문구 천호대로13길 43,7010000,서울특별시교육청,7021000,서울특별시동부교육지원청,2013-11-29,2019-09-10,37.5757428,127.0288848,2019-09-16,7001220,한국교원대학교,
B000001843,서울이문초등학교,초등학교,1967-09-06,공립,본교,운영,서울특별시 동대문구 이문동 358-34,서울특별시 동대문구 신이문로 16,7010000,서울특별시교육청,7021000,서울특별시동부교육지원청,2013-11-29,2019-09-10,37.6020400,127.0641929,2019-09-16,7001220,한국교원대학교,
B000001844,서울군자초등학교,초등학교,1973-11-22,공립,본교,운영,서울특별시 동대문구 장안동 239-2,서울특별시 동대문구 한천로6길 21,7010000,서울특별시교육청,7021000,서울특별시동부교육지원청,2013-11-29,2019-09-10,37.5643015,127.0613471,2019-09-16,7001220,한국교원대학교,
B000001845,서울장평초등학교,초등학교,1980-04-04,공립,본교,운영,서울특별시 동대문구 장안동 323,서울특별시 동대문구 답십리로69길 27,7010000,서울특별시교육청,7021000,서울특별시동부교육지원청,2013-11-29,2019-09-10,37.5738074,127.0732688,2019-09-16,7001220,한국교원대학교,
B000001846,서울안평초등학교,초등학교,1990-10-10,공립,본교,운영,서울특별시 동대문구 장안동 353-1,서울특별시 동대문구 장한로14길 61,7010000,서울특별시교육청,7021000,서울특별시동부교육지원청,2013-11-29,2019-09-10,37.5657116,127.0713495,2019-09-16,7001220,한국교원대학교,
B000001847,서울배봉초등학교,초등학교,1971-10-08,공립,본교,운영,서울특별시 동대문구 전농동 3-111,서울특별시 동대문구 사가정로 193,7010000,서울특별시교육청,7021000,서울특별시동부교육지원청,2013-11-29,2019-09-10,37.5800280,127.0659414,2019-09-16,7001220,한국교원대학교,
B000001848,서울전동초등학교,초등학교,1969-05-20,공립,본교,운영,서울특별시 동대문구 전농동 45-41,서울특별시 동대문구 전농로16길 61,7010000,서울특별시교육청,7021000,서울특별시동부교육지원청,2013-11-29,2019-09-10,37.5790952,127.0611380,2019-09-16,7001220,한국교원대학교,
B000001849,서울전곡초등학교,초등학교,1961-04-06,공립,본교,운영,서울특별시 동대문구 전농동 188,서울특별시 동대문구 전농로 172,7010000,서울특별시교육청,7021000,서울특별시동부교육지원청,2013-11-29,2019-09-10,37.5805755,127.0562692,2019-09-16,7001220,한국교원대학교,
B000001850,서울전농초등학교,초등학교,1942-04-08,공립,본교,운영,서울특별시 동대문구 전농동 298,서울특별시 동대문구 사가정로 66,7010000,서울특별시교육청,7021000,서울특별시동부교육지원청,2013-11-29,2019-09-10,37.5744176,127.0542426,2019-09-16,7001220,한국교원대학교,
B000001851,서울홍파초등학교,초등학교,1960-07-05,공립,본교,운영,서울특별시 동대문구 제기동 678,서울특별시 동대문구 고산자로 518,7010000,서울특별시교육청,7021000,서울특별시동부교육지원청,2013-11-29,2019-09-10,37.5858976,127.0395874,2019-09-16,7001220,한국교원대학교,
B000001852,서울종암초등학교,초등학교,1922-07-08,공립,본교,운영,서울특별시 동대문구 제기동 1157,서울특별시 동대문구 무학로44길 25,7010000,서울특별시교육청,7021000,서울특별시동부교육지원청,2013-11-29,2019-09-10,37.5821589,127.0311722,2019-09-16,7001220,한국교원대학교,
B000001853,서울홍릉초등학교,초등학교,1967-11-30,공립,본교,운영,서울특별시 동대문구 청량리동 206-44,서울특별시 동대문구 회기로 90,7010000,서울특별시교육청,7021000,서울특별시동부교육지원청,2013-11-29,2019-09-10,37.5909805,127.0474406,2019-09-16,7001220,한국교원대학교,
B000001854,서울청량초등학교,초등학교,1937-04-05,공립,본교,운영,서울특별시 동대문구 회기동 1-1,서울특별시 동대문구 회기로25길 31,7010000,서울특별시교육청,7021000,서울특별시동부교육지원청,2013-11-29,2019-09-10,37.5919847,127.0558443,2019-09-16,7001220,한국교원대학교,
B000001855,서울휘봉초등학교,초등학교,2006-03-01,공립,본교,운영,서울특별시 동대문구 휘경동 49-27,서울특별시 동대문구 장안벚꽃로 309,7010000,서울특별시교육청,7021000,서울특별시동부교육지원청,2013-11-29,2019-09-10,37.5859982,127.0701251,2019-09-16,7001220,한국교원대학교,
B000001856,경희초등학교,초등학교,1961-05-18,사립,본교,운영,서울특별시 동대문구 회기동 산4-50,서울특별시 동대문구 경희대로 26,7010000,서울특별시교육청,7021000,서울특별시동부교육지원청,2013-11-29,2019-09-10,37.5939495015,127.0548901682,2019-09-16,7001220,한국교원대학교,
B000001857,서울삼육초등학교,초등학교,1913-10-01,사립,본교,운영,서울특별시 동대문구 회기동 102-48,서울특별시 동대문구 회기로10길 63,7010000,서울특별시교육청,7021000,서울특별시동부교육지원청,2013-11-29,2019-09-10,37.5891291,127.0477488,2019-09-16,7001220,한국교원대학교,
B000001858,은석초등학교,초등학교,1963-04-16,사립,본교,운영,서울특별시 동대문구 장안동 328,서울특별시 동대문구 장안벚꽃로 205,7010000,서울특별시교육청,7021000,서울특별시동부교육지원청,2013-11-29,2019-09-10,37.5785598048,127.0757635382,2019-09-16,7001220,한국교원대학교,
B000001859,서울면목초등학교,초등학교,1944-11-12,공립,본교,운영,서울특별시 중랑구 면목동 221,서울특별시 중랑구 면목로 434,7010000,서울특별시교육청,7021000,서울특별시동부교육지원청,2013-11-29,2019-09-10,37.5913560,127.0876154,2019-09-16,7001220,한국교원대학교,
B000001860,서울면남초등학교,초등학교,1983-10-19,공립,본교,운영,서울특별시 중랑구 면목동 583-15,서울특별시 중랑구 면목로30나길 38,7010000,서울특별시교육청,7021000,서울특별시동부교육지원청,2013-11-29,2019-09-10,37.5769839,127.0880206,2019-09-16,7001220,한국교원대학교,
B000001861,서울동원초등학교,초등학교,1991-05-04,공립,본교,운영,서울특별시 중랑구 망우동 216,서울특별시 중랑구 송림길 114,7010000,서울특별시교육청,7021000,서울특별시동부교육지원청,2013-11-29,2019-09-10,37.6047385,127.1049497,2019-09-16,7001220,한국교원대학교,
B000001862,서울면북초등학교,초등학교,1983-09-05,공립,본교,운영,서울특별시 중랑구 망우동 119,서울특별시 중랑구 용마공원로5길 32,7010000,서울특별시교육청,7021000,서울특별시동부교육지원청,2013-11-29,2019-09-10,37.5944753,127.1034704,2019-09-16,7001220,한국교원대학교,
B000001863,서울망우초등학교,초등학교,1977-03-01,공립,본교,운영,서울특별시 중랑구 망우동 153-1,서울특별시 중랑구 망우로72길 49,7010000,서울특별시교육청,7021000,서울특별시동부교육지원청,2013-11-29,2019-09-10,37.5983290,127.1035908,2019-09-16,7001220,한국교원대학교,
B000001864,서울면일초등학교,초등학교,1983-04-21,공립,본교,운영,서울특별시 중랑구 망우동 438-2,서울특별시 중랑구 용마산로100길 13,7010000,서울특별시교육청,7021000,서울특별시동부교육지원청,2013-11-29,2019-09-10,37.5921204,127.0998536,2019-09-16,7001220,한국교원대학교,
B000001865,서울면중초등학교,초등학교,1976-06-05,공립,본교,운영,서울특별시 중랑구 면목동 491-1,서울특별시 중랑구 용마산로70길 43,7010000,서울특별시교육청,7021000,서울특별시동부교육지원청,2013-11-29,2019-09-10,37.5824024,127.0966419,2019-09-16,7001220,한국교원대학교,
B000001866,서울중곡초등학교,초등학교,1967-09-05,공립,본교,운영,서울특별시 중랑구 면목동 380,서울특별시 중랑구 면목로23길 20,7010000,서울특별시교육청,7021000,서울특별시동부교육지원청,2013-11-29,2019-09-10,37.5745386,127.0838470,2019-09-16,7001220,한국교원대학교,
B000001867,서울면동초등학교,초등학교,1978-09-01,공립,본교,운영,서울특별시 중랑구 면목동 551,서울특별시 중랑구 면목로57길 32,7010000,서울특별시교육청,7021000,서울특별시동부교육지원청,2013-11-29,2019-09-10,37.5854287,127.0866805,2019-09-16,7001220,한국교원대학교,
B000001868,서울중목초등학교,초등학교,1997-11-04,공립,본교,운영,서울특별시 중랑구 면목동 180-5,서울특별시 중랑구 동일로 665,7010000,서울특별시교육청,7021000,서울특별시동부교육지원청,2013-11-29,2019-09-10,37.5897528,127.0793361,2019-09-16,7001220,한국교원대학교,
B000001869,서울중랑초등학교,초등학교,1972-05-08,공립,본교,운영,서울특별시 중랑구 면목동 192-1,서울특별시 중랑구 봉우재로6길 26,7010000,서울특별시교육청,7021000,서울특별시동부교육지원청,2013-11-29,2019-09-10,37.5893695,127.0757847,2019-09-16,7001220,한국교원대학교,
B000001870,서울원묵초등학교,초등학교,1995-11-10,공립,본교,운영,서울특별시 중랑구 묵동 11,서울특별시 중랑구 숙선옹주로 109,7010000,서울특별시교육청,7021000,서울특별시동부교육지원청,2013-11-29,2019-09-10,37.6178662,127.0864307,2019-09-16,7001220,한국교원대학교,
B000001871,서울묵현초등학교,초등학교,2004-10-29,공립,본교,운영,서울특별시 중랑구 묵동 242-55,서울특별시 중랑구 동일로157길 75,7010000,서울특별시교육청,7021000,서울특별시동부교육지원청,2013-11-29,2019-09-10,37.6089983,127.0736243,2019-09-16,7001220,한국교원대학교,
B000001872,서울신묵초등학교,초등학교,1984-12-05,공립,본교,운영,서울특별시 중랑구 묵동 246-12,서울특별시 중랑구 동일로149길 46,7010000,서울특별시교육청,7021000,서울특별시동부교육지원청,2013-11-29,2019-09-10,37.6072679,127.0755519,2019-09-16,7001220,한국교원대학교,
B000001873,서울상봉초등학교,초등학교,1983-10-25,공립,본교,운영,서울특별시 중랑구 상봉동 312-1,서울특별시 중랑구 동일로126가길 11,7010000,서울특별시교육청,7021000,서울특별시동부교육지원청,2013-11-29,2019-09-10,37.5981845,127.0836798,2019-09-16,7001220,한국교원대학교,
B000001874,서울신현초등학교,초등학교,1996-03-01,공립,본교,운영,서울특별시 중랑구 신내동 663,서울특별시 중랑구 봉화산로 188,7010000,서울특별시교육청,7021000,서울특별시동부교육지원청,2013-11-29,2019-09-10,37.6055132,127.0934688,2019-09-16,7001220,한국교원대학교,
B000001875,서울신내초등학교,초등학교,1994-01-05,공립,본교,운영,서울특별시 중랑구 신내동 444,서울특별시 중랑구 용마산로125나길 22,7010000,서울특별시교육청,7021000,서울특별시동부교육지원청,2013-11-29,2019-09-10,37.6048021,127.1001538,2019-09-16,7001220,한국교원대학교,
B000001876,서울중화초등학교,초등학교,1946-11-07,공립,본교,운영,서울특별시 중랑구 신내동 531,서울특별시 중랑구 신내로7가길 22,7010000,서울특별시교육청,7021000,서울특별시동부교육지원청,2013-11-29,2019-09-10,37.6030032,127.0946485,2019-09-16,7001220,한국교원대학교,
B000001877,서울봉화초등학교,초등학교,1996-09-19,공립,본교,운영,서울특별시 중랑구 신내동 655,서울특별시 중랑구 신내로15길 110,7010000,서울특별시교육청,7021000,서울특별시동부교육지원청,2013-11-29,2019-09-10,37.6132890,127.0923924,2019-09-16,7001220,한국교원대학교,
B000001878,서울묵동초등학교,초등학교,1972-12-23,공립,본교,운영,서울특별시 중랑구 중화동 277-1,서울특별시 중랑구 동일로138길 27,7010000,서울특별시교육청,7021000,서울특별시동부교육지원청,2013-11-29,2019-09-10,37.6040651,127.0814383,2019-09-16,7001220,한국교원대학교,
B000001879,서울중흥초등학교,초등학교,1999-10-02,공립,본교,운영,서울특별시 중랑구 중화동 119,서울특별시 중랑구 봉화산로 82,7010000,서울특별시교육청,7021000,서울특별시동부교육지원청,2013-11-29,2019-09-10,37.6016352,127.0841400,2019-09-16,7001220,한국교원대학교,
B000001880,금성초등학교,초등학교,1965-06-26,사립,본교,운영,서울특별시 중랑구 신내동 651,서울특별시 중랑구 신내로21길 55,7010000,서울특별시교육청,7021000,서울특별시동부교육지원청,2013-11-29,2019-09-10,37.6150153,127.0900306,2019-09-16,7001220,한국교원대학교,
B000001881,서울은빛초등학교,초등학교,2011-05-09,공립,본교,운영,서울특별시 은평구 진관동 41-25,서울특별시 은평구 진관3로 73-17,7010000,서울특별시교육청,7031000,서울특별시서부교육지원청,2013-11-29,2019-09-10,37.6351712,126.9200278,2019-09-16,7001220,한국교원대학교,
B000001882,서울신도초등학교,초등학교,1928-12-01,공립,본교,운영,서울특별시 은평구 진관동 108,서울특별시 은평구 진관1로 77-23,7010000,서울특별시교육청,7031000,서울특별시서부교육지원청,2013-11-29,2019-09-10,37.6327684,126.9291409,2019-09-16,7001220,한국교원대학교,
B000001883,서울은진초등학교,초등학교,2009-04-30,공립,본교,운영,서울특별시 은평구 진관동 104,서울특별시 은평구 진관1로 21-20,7010000,서울특별시교육청,7031000,서울특별시서부교육지원청,2013-11-29,2019-09-10,37.6326070,126.9209282,2019-09-16,7001220,한국교원대학교,
B000001884,서울진관초등학교,초등학교,2008-09-01,공립,본교,운영,서울특별시 은평구 진관동 8,서울특별시 은평구 진관4로 78-16,7010000,서울특별시교육청,7031000,서울특별시서부교육지원청,2013-11-29,2019-09-10,37.6450510,126.9291301,2019-09-16,7001220,한국교원대학교,
B000001885,서울북한산초등학교,초등학교,1967-03-25,공립,본교,운영,서울특별시 은평구 진관동 산3,서울특별시 은평구 대서문길 42-3,7010000,서울특별시교육청,7031000,서울특별시서부교육지원청,2013-11-29,2019-09-10,37.6540522,126.9503380,2019-09-16,7001220,한국교원대학교,
B000001886,서울갈현초등학교,초등학교,1967-03-13,공립,본교,운영,서울특별시 은평구 갈현동 451-15,서울특별시 은평구 연서로29길 31,7010000,서울특별시교육청,7031000,서울특별시서부교육지원청,2013-11-29,2019-09-10,37.6192587,126.9166431,2019-09-16,7001220,한국교원대학교,
B000001887,서울구현초등학교,초등학교,2009-04-27,공립,본교,운영,서울특별시 은평구 구산동 164,서울특별시 은평구 갈현로15길 51,7010000,서울특별시교육청,7031000,서울특별시서부교육지원청,2013-11-29,2019-09-10,37.6092227,126.9058482,2019-09-16,7001220,한국교원대학교,
B000001888,서울구산초등학교,초등학교,1977-11-29,공립,본교,운영,서울특별시 은평구 구산동 152-3,서울특별시 은평구 서오릉로15길 16,7010000,서울특별시교육청,7031000,서울특별시서부교육지원청,2013-11-29,2019-09-10,37.6124476,126.9094521,2019-09-16,7001220,한국교원대학교,
B000001889,서울은평초등학교,초등학교,1931-04-01,공립,본교,운영,서울특별시 은평구 녹번동 40-3,서울특별시 은평구 은평로 239,7010000,서울특별시교육청,7031000,서울특별시서부교육지원청,2013-11-29,2019-09-10,37.6019568,126.9341059,2019-09-16,7001220,한국교원대학교,
B000001890,서울녹번초등학교,초등학교,1982-09-24,공립,본교,운영,서울특별시 은평구 녹번동 174,서울특별시 은평구 녹번로1길 1,7010000,서울특별시교육청,7031000,서울특별시서부교육지원청,2013-11-29,2019-09-10,37.6042910,126.9261110,2019-09-16,7001220,한국교원대학교,
B000001891,서울수리초등학교,초등학교,2011-03-01,공립,본교,운영,서울특별시 은평구 불광동 639,서울특별시 은평구 불광로14길 10-10,7010000,서울특별시교육청,7031000,서울특별시서부교육지원청,2013-11-29,2019-09-10,37.6204888,126.9342435,2019-09-16,7001220,한국교원대학교,
B000001892,서울대조초등학교,초등학교,1967-11-24,공립,본교,운영,서울특별시 은평구 대조동 212-1,서울특별시 은평구 연서로18길 17,7010000,서울특별시교육청,7031000,서울특별시서부교육지원청,2013-11-29,2019-09-10,37.6132233,126.9195884,2019-09-16,7001220,한국교원대학교,
B000001893,서울연신초등학교,초등학교,1976-03-18,공립,본교,운영,서울특별시 은평구 불광동 73-1,서울특별시 은평구 연서로 347,7010000,서울특별시교육청,7031000,서울특별시서부교육지원청,2013-11-29,2019-09-10,37.6262605,126.9282737,2019-09-16,7001220,한국교원대학교,
B000001894,서울불광초등학교,초등학교,1962-04-18,공립,본교,운영,서울특별시 은평구 불광동 272-2,서울특별시 은평구 불광로 51,7010000,서울특별시교육청,7031000,서울특별시서부교육지원청,2013-11-29,2019-09-10,37.6134285463,126.9307204120,2019-09-16,7001220,한국교원대학교,
B000001895,서울연천초등학교,초등학교,1985-05-06,공립,본교,운영,서울특별시 은평구 불광동 346-153,서울특별시 은평구 연서로34길 22,7010000,서울특별시교육청,7031000,서울특별시서부교육지원청,2013-11-29,2019-09-10,37.6208125,126.9294822,2019-09-16,7001220,한국교원대학교,
B000001896,서울연광초등학교,초등학교,2004-03-01,공립,본교,운영,서울특별시 은평구 불광동 400-6,서울특별시 은평구 연서로35길 37,7010000,서울특별시교육청,7031000,서울특별시서부교육지원청,2013-11-29,2019-09-10,37.6238264,126.9240662,2019-09-16,7001220,한국교원대학교,
B000001897,서울수색초등학교,초등학교,1935-04-01,공립,본교,운영,서울특별시 은평구 수색동 129,서울특별시 은평구 수색로16길 21,7010000,서울특별시교육청,7031000,서울특별시서부교육지원청,2013-11-29,2019-09-10,37.5850571,126.8954934,2019-09-16,7001220,한국교원대학교,
B000001898,서울신사초등학교,초등학교,1980-10-24,공립,본교,운영,서울특별시 은평구 신사동 98-32,서울특별시 은평구 가좌로 275-2,7010000,서울특별시교육청,7031000,서울특별시서부교육지원청,2013-11-29,2019-09-10,37.5926639,126.9121215,2019-09-16,7001220,한국교원대학교,
B000001899,서울서신초등학교,초등학교,2005-03-01,공립,본교,운영,서울특별시 은평구 신사동 194,서울특별시 은평구 은평터널로 150,7010000,서울특별시교육청,7031000,서울특별시서부교육지원청,2013-11-29,2019-09-10,37.5923285,126.9074837,2019-09-16,7001220,한국교원대학교,
B000001900,서울상신초등학교,초등학교,1982-11-11,공립,본교,운영,서울특별시 은평구 신사동 238-2,서울특별시 은평구 가좌로 361,7010000,서울특별시교육청,7031000,서울특별시서부교육지원청,2013-11-29,2019-09-10,37.5976771,126.9048000,2019-09-16,7001220,한국교원대학교,
B000001901,서울역촌초등학교,초등학교,1972-03-16,공립,본교,운영,서울특별시 은평구 역촌동 82-1,서울특별시 은평구 은평로3길 25,7010000,서울특별시교육청,7031000,서울특별시서부교육지원청,2013-11-29,2019-09-10,37.6017363,126.9142657,2019-09-16,7001220,한국교원대학교,
B000001902,서울은명초등학교,초등학교,2008-10-26,공립,본교,운영,서울특별시 은평구 응암동 114-12,서울특별시 은평구 은평로4길 21-9,7010000,서울특별시교육청,7031000,서울특별시서부교육지원청,2013-11-29,2019-09-10,37.5979615,126.9188333,2019-09-16,7001220,한국교원대학교,
B000001903,서울연은초등학교,초등학교,1983-09-26,공립,본교,운영,서울특별시 은평구 응암동 759-3,서울특별시 은평구 백련산로2길 35,7010000,서울특별시교육청,7031000,서울특별시서부교육지원청,2013-11-29,2019-09-10,37.5905111346,126.9251778,2019-09-16,7001220,한국교원대학교,
B000001904,서울응암초등학교,초등학교,1962-11-12,공립,본교,운영,서울특별시 은평구 응암동 340,서울특별시 은평구 가좌로6길 20,7010000,서울특별시교육청,7031000,서울특별시서부교육지원청,2013-11-29,2019-09-10,37.5882608,126.9217624,2019-09-16,7001220,한국교원대학교,
B000001905,서울증산초등학교,초등학교,1976-11-26,공립,본교,운영,서울특별시 은평구 증산동 212,서울특별시 은평구 증산서길 61,7010000,서울특별시교육청,7031000,서울특별시서부교육지원청,2013-11-29,2019-09-10,37.5821614,126.9043095,2019-09-16,7001220,한국교원대학교,
B000001906,서울대은초등학교,초등학교,1982-10-08,공립,본교,운영,서울특별시 은평구 대조동 82-5,서울특별시 은평구 통일로69길 12-15,7010000,서울특별시교육청,7031000,서울특별시서부교육지원청,2013-11-29,2019-09-10,37.6118365,126.9261543,2019-09-16,7001220,한국교원대학교,
B000001907,충암초등학교,초등학교,1966-11-09,사립,본교,운영,서울특별시 은평구 응암동 746-17,서울특별시 은평구 가좌로5길 5,7010000,서울특별시교육청,7031000,서울특별시서부교육지원청,2013-11-29,2019-09-10,37.5850457,126.9217386,2019-09-16,7001220,한국교원대학교,
B000001908,선일초등학교,초등학교,1965-09-27,사립,본교,운영,서울특별시 은평구 갈현동 240-1,서울특별시 은평구 갈현로29길 27,7010000,서울특별시교육청,7031000,서울특별시서부교육지원청,2013-11-29,2019-09-10,37.6197497,126.9126173,2019-09-16,7001220,한국교원대학교,
B000001909,예일초등학교,초등학교,1965-09-26,사립,본교,운영,서울특별시 은평구 구산동 8-3,서울특별시 은평구 연서로 117,7010000,서울특별시교육청,7031000,서울특별시서부교육지원청,2013-11-29,2019-09-10,37.6101791,126.9151623,2019-09-16,7001220,한국교원대학교,
B000001910,은혜초등학교,초등학교,1966-03-10,사립,본교,운영,서울특별시 은평구 불광동 331-27,서울특별시 은평구 통일로78가길 20,7010000,서울특별시교육청,7031000,서울특별시서부교육지원청,2013-11-29,2019-09-10,37.6177328,126.9275737,2019-09-16,7001220,한국교원대학교,
B000001912,서울미동초등학교,초등학교,1896-05-01,공립,본교,운영,서울특별시 서대문구 미근동 36-1,서울특별시 서대문구 충정로 52,7010000,서울특별시교육청,7031000,서울특별시서부교육지원청,2013-11-29,2019-09-10,37.5631109,126.9662737,2019-09-16,7001220,한국교원대학교,
B000001913,서울금화초등학교,초등학교,1924-04-01,공립,본교,운영,서울특별시 서대문구 천연동 13-1,서울특별시 서대문구 통일로 165,7010000,서울특별시교육청,7031000,서울특별시서부교육지원청,2013-11-29,2019-09-10,37.5683284,126.9630251,2019-09-16,7001220,한국교원대학교,
B000001914,서울홍은초등학교,초등학교,1974-03-06,공립,본교,운영,서울특별시 서대문구 홍제동 286-5,서울특별시 서대문구 세검정로 105,7010000,서울특별시교육청,7031000,서울특별시서부교육지원청,2013-11-29,2019-09-10,37.5974199,126.9496287,2019-09-16,7001220,한국교원대학교,
B000001915,서울홍제초등학교,초등학교,1947-01-10,공립,본교,운영,서울특별시 서대문구 홍은동 48-112,서울특별시 서대문구 홍은중앙로 13,7010000,서울특별시교육청,7031000,서울특별시서부교육지원청,2013-11-29,2019-09-10,37.5931186,126.9448285,2019-09-16,7001220,한국교원대학교,
B000001916,서울북성초등학교,초등학교,1941-11-01,공립,본교,운영,서울특별시 서대문구 북아현동 215,서울특별시 서대문구 북아현로1나길 22(북아현동),7010000,서울특별시교육청,7031000,서울특별시서부교육지원청,2013-11-29,2019-09-10,37.5591762,126.9522691,2019-09-16,7001220,한국교원대학교,
B000001917,서울연가초등학교,초등학교,1973-09-07,공립,본교,운영,서울특별시 서대문구 남가좌동 364-6,서울특별시 서대문구 증가로12가길 49-50,7010000,서울특별시교육청,7031000,서울특별시서부교육지원청,2013-11-29,2019-09-10,37.5802016,126.9180758,2019-09-16,7001220,한국교원대학교,
B000001918,서울대신초등학교,초등학교,1965-03-10,공립,본교,운영,서울특별시 서대문구 대현동 67-1,서울특별시 서대문구 이화여대2길 27,7010000,서울특별시교육청,7031000,서울특별시서부교육지원청,2013-11-29,2019-09-10,37.5580828,126.9478490,2019-09-16,7001220,한국교원대학교,
B000001919,서울북가좌초등학교,초등학교,1969-03-24,공립,본교,운영,서울특별시 서대문구 북가좌동 376-17,서울특별시 서대문구 거북골로19길 20,7010000,서울특별시교육청,7031000,서울특별시서부교육지원청,2013-11-29,2019-09-10,37.5774792,126.9074665,2019-09-16,7001220,한국교원대학교,
B000001920,서울연희초등학교,초등학교,1968-12-07,공립,본교,운영,서울특별시 서대문구 연희동 88-1,서울특별시 서대문구 연희로 136,7010000,서울특별시교육청,7031000,서울특별시서부교육지원청,2013-11-29,2019-09-10,37.5691670,126.9339564,2019-09-16,7001220,한국교원대학교,
B000001921,서울창서초등학교,초등학교,1961-11-01,공립,본교,운영,서울특별시 서대문구 창천동 53-38,서울특별시 서대문구 연세로5나길 30-3,7010000,서울특별시교육청,7031000,서울특별시서부교육지원청,2013-11-29,2019-09-10,37.5576122,126.9338905,2019-09-16,7001220,한국교원대학교,
B000001922,서울홍연초등학교,초등학교,1975-07-03,공립,본교,운영,서울특별시 서대문구 홍은동 305,서울특별시 서대문구 백련사길 55,7010000,서울특별시교육청,7031000,서울특별시서부교육지원청,2013-11-29,2019-09-10,37.5818632,126.9309472,2019-09-16,7001220,한국교원대학교,
B000001923,서울안산초등학교,초등학교,1937-11-30,공립,본교,운영,서울특별시 서대문구 홍제동 44,서울특별시 서대문구 통일로 321,7010000,서울특별시교육청,7031000,서울특별시서부교육지원청,2013-11-29,2019-09-10,37.5790158,126.9515446,2019-09-16,7001220,한국교원대학교,
B000001924,서울인왕초등학교,초등학교,1962-11-12,공립,본교,운영,서울특별시 서대문구 홍제동 241-113,서울특별시 서대문구 세무서길 33-9,7010000,서울특별시교육청,7031000,서울특별시서부교육지원청,2013-11-29,2019-09-10,37.5901698,126.9450604,2019-09-16,7001220,한국교원대학교,
B000001925,서울고은초등학교,초등학교,1971-12-03,공립,본교,운영,서울특별시 서대문구 홍제동 320-12,서울특별시 서대문구 모래내로 441,7010000,서울특별시교육청,7031000,서울특별시서부교육지원청,2013-11-29,2019-09-10,37.5847702,126.9433678,2019-09-16,7001220,한국교원대학교,
B000001926,경기초등학교,초등학교,1964-12-03,사립,본교,운영,서울특별시 서대문구 충정로2가 70-2,서울특별시 서대문구 경기대로9길 10,7010000,서울특별시교육청,7031000,서울특별시서부교육지원청,2013-11-29,2019-09-10,37.5648923,126.9628701,2019-09-16,7001220,한국교원대학교,
B000001927,이화여자대학교사범대학부속초등학교,초등학교,1955-04-08,사립,본교,운영,서울특별시 서대문구 대신동 20,서울특별시 서대문구 성산로 512-39,7010000,서울특별시교육청,7031000,서울특별시서부교육지원청,2013-11-29,2019-09-10,37.5612266,126.9426231,2019-09-16,7001220,한국교원대학교,
B000001928,추계초등학교,초등학교,1964-07-20,사립,본교,운영,서울특별시 서대문구 북아현동 190-1,서울특별시 서대문구 북아현로11가길 7,7010000,서울특별시교육청,7031000,서울특별시서부교육지원청,2013-11-29,2019-09-10,37.5628641,126.9531684,2019-09-16,7001220,한국교원대학교,
B000001929,명지초등학교,초등학교,1967-03-15,사립,본교,운영,서울특별시 서대문구 홍은동 산26-127,서울특별시 서대문구 명지2길 32-20,7010000,서울특별시교육청,7031000,서울특별시서부교육지원청,2013-11-29,2019-09-10,37.5835561,126.9280461,2019-09-16,7001220,한국교원대학교,
B000001930,서울공덕초등학교,초등학교,1944-04-11,공립,본교,운영,서울특별시 마포구 공덕동 256-4,서울특별시 마포구 만리재옛길 13,7010000,서울특별시교육청,7031000,서울특별시서부교육지원청,2013-11-29,2019-09-10,37.5457002,126.9537786,2019-09-16,7001220,한국교원대학교,
B000001931,서울창천초등학교,초등학교,1940-04-01,공립,본교,운영,서울특별시 마포구 노고산동 33-1,서울특별시 마포구 백범로1길 56,7010000,서울특별시교육청,7031000,서울특별시서부교육지원청,2013-11-29,2019-09-10,37.5548865,126.9393201,2019-09-16,7001220,한국교원대학교,
B000001932,서울용강초등학교,초등학교,1916-04-26,공립,본교,운영,서울특별시 마포구 대흥동 51,서울특별시 마포구 백범로17길 9,7010000,서울특별시교육청,7031000,서울특별시서부교육지원청,2013-11-29,2019-09-10,37.5486147,126.9440167,2019-09-16,7001220,한국교원대학교,
B000001933,서울마포초등학교,초등학교,1911-06-12,공립,본교,운영,서울특별시 마포구 도화동 347-5,서울특별시 마포구 도화2길 64,7010000,서울특별시교육청,7031000,서울특별시서부교육지원청,2013-11-29,2019-09-10,37.5384272,126.9494344,2019-09-16,7001220,한국교원대학교,
B000001934,서울동교초등학교,초등학교,1975-04-18,공립,본교,운영,서울특별시 마포구 망원동 426-5,서울특별시 마포구 월드컵로25길 86,7010000,서울특별시교육청,7031000,서울특별시서부교육지원청,2013-11-29,2019-09-10,37.5582046,126.9023504,2019-09-16,7001220,한국교원대학교,
B000001935,서울망원초등학교,초등학교,1984-10-26,공립,본교,운영,서울특별시 마포구 망원동 467-1,서울특별시 마포구 방울내로5길 28,7010000,서울특별시교육청,7031000,서울특별시서부교육지원청,2013-11-29,2019-09-10,37.5608234,126.9008405,2019-09-16,7001220,한국교원대학교,
B000001936,서울서강초등학교,초등학교,1937-04-01,공립,본교,운영,서울특별시 마포구 상수동 1-1,서울특별시 마포구 독막로 113,7010000,서울특별시교육청,7031000,서울특별시서부교육지원청,2013-11-29,2019-09-10,37.5483494,126.9265893,2019-09-16,7001220,한국교원대학교,
B000001937,서울하늘초등학교,초등학교,2011-03-01,공립,본교,운영,서울특별시 마포구 상암동 1737,서울특별시 마포구 월드컵북로 502-14,7010000,서울특별시교육청,7031000,서울특별시서부교육지원청,2013-11-29,2019-09-10,37.5855353,126.8806962,2019-09-16,7001220,한국교원대학교,
B000001938,서울서교초등학교,초등학교,1962-07-12,공립,본교,운영,서울특별시 마포구 서교동 341,서울특별시 마포구 와우산로23길 20-27,7010000,서울특별시교육청,7031000,서울특별시서부교육지원청,2013-11-29,2019-09-10,37.5546731,126.9251258,2019-09-16,7001220,한국교원대학교,
B000001939,서울성원초등학교,초등학교,1986-10-21,공립,본교,운영,서울특별시 마포구 성산동 175-1,서울특별시 마포구 월드컵로36길 34,7010000,서울특별시교육청,7031000,서울특별시서부교육지원청,2013-11-29,2019-09-10,37.5672887,126.9052439,2019-09-16,7001220,한국교원대학교,
B000001940,서울성서초등학교,초등학교,1984-05-23,공립,본교,운영,서울특별시 마포구 성산동 31-10,서울특별시 마포구 성미산로7길 24,7010000,서울특별시교육청,7031000,서울특별시서부교육지원청,2013-11-29,2019-09-10,37.5605954796,126.9109264478,2019-09-16,7001220,한국교원대학교,
B000001941,서울중동초등학교,초등학교,1977-12-02,공립,본교,운영,서울특별시 마포구 성산동 94-1,서울특별시 마포구 월드컵북로 152,7010000,서울특별시교육청,7031000,서울특별시서부교육지원청,2013-11-29,2019-09-10,37.5666231,126.9112790,2019-09-16,7001220,한국교원대학교,
B000001942,서울신석초등학교,초등학교,1964-03-10,공립,본교,운영,서울특별시 마포구 신수동 429-2,서울특별시 마포구 대흥로 33,7010000,서울특별시교육청,7031000,서울특별시서부교육지원청,2013-11-29,2019-09-10,37.5442479,126.9378894,2019-09-16,7001220,한국교원대학교,
B000001943,서울아현초등학교,초등학교,1932-04-02,공립,본교,운영,서울특별시 마포구 아현동 267-2,서울특별시 마포구 굴레방로 6,7010000,서울특별시교육청,7031000,서울특별시서부교육지원청,2013-11-29,2019-09-10,37.5555103,126.9559661,2019-09-16,7001220,한국교원대학교,
B000001944,서울소의초등학교,초등학교,1945-11-01,공립,본교,운영,서울특별시 마포구 아현동 386-1,서울특별시 마포구 마포대로24길 42,7010000,서울특별시교육청,7031000,서울특별시서부교육지원청,2013-11-29,2019-09-10,37.5522666,126.9608455,2019-09-16,7001220,한국교원대학교,
B000001945,서울한서초등학교,초등학교,1945-11-01,공립,본교,운영,서울특별시 마포구 염리동 24-140,서울특별시 마포구 대흥로24바길 27,7010000,서울특별시교육청,7031000,서울특별시서부교육지원청,2013-11-29,2019-09-10,37.5535191,126.9495758,2019-09-16,7001220,한국교원대학교,
B000001946,서울염리초등학교,초등학교,1983-11-22,공립,본교,운영,서울특별시 마포구 염리동 173-4,서울특별시 마포구 토정로37길 37,7010000,서울특별시교육청,7031000,서울특별시서부교육지원청,2013-11-29,2019-09-10,37.5424465,126.9461953,2019-09-16,7001220,한국교원대학교,
B000001947,서울신북초등학교,초등학교,1982-11-01,공립,본교,운영,서울특별시 마포구 중동 42,서울특별시 마포구 월드컵북로38길 26,7010000,서울특별시교육청,7031000,서울특별시서부교육지원청,2013-11-29,2019-09-10,37.5712061,126.9051164,2019-09-16,7001220,한국교원대학교,
B000001948,서울성산초등학교,초등학교,1969-03-24,공립,본교,운영,서울특별시 마포구 합정동 427-2,서울특별시 마포구 양화로3길 94,7010000,서울특별시교육청,7031000,서울특별시서부교육지원청,2013-11-29,2019-09-10,37.5534098,126.9111567,2019-09-16,7001220,한국교원대학교,
B000001949,서울상지초등학교,초등학교,2007-06-05,공립,본교,운영,서울특별시 마포구 상암동 1676,서울특별시 마포구 월드컵로42길 30,7010000,서울특별시교육청,7031000,서울특별시서부교육지원청,2013-11-29,2019-09-10,37.5796020,126.8821351,2019-09-16,7001220,한국교원대학교,
B000001950,서울상암초등학교,초등학교,1972-07-10,공립,본교,운영,서울특별시 마포구 상암동 1635,서울특별시 마포구 월드컵북로 353,7010000,서울특별시교육청,7031000,서울특별시서부교육지원청,2013-11-29,2019-09-10,37.5759905,126.8922651,2019-09-16,7001220,한국교원대학교,
B000001951,홍익대학교사범대학부속초등학교,초등학교,1966-03-12,사립,본교,운영,서울특별시 마포구 성산동 산11-31,서울특별시 마포구 성미산로 51,7010000,서울특별시교육청,7031000,서울특별시서부교육지원청,2013-11-29,2019-09-10,37.5601072,126.9134939,2019-09-16,7001220,한국교원대학교,
B000001952,서울천왕초등학교,초등학교,2011-09-01,공립,본교,운영,서울특별시 구로구 천왕동 273-2,서울특별시 구로구 천왕로1길 11,7010000,서울특별시교육청,7041000,서울특별시남부교육지원청,2013-11-29,2019-09-10,37.4816096,126.8367160785,2019-09-16,7001220,한국교원대학교,
B000001953,서울영일초등학교,초등학교,1967-11-29,공립,본교,운영,서울특별시 구로구 가리봉동 17,서울특별시 구로구 남부순환로105길 218,7010000,서울특별시교육청,7041000,서울특별시남부교육지원청,2013-11-29,2019-09-10,37.4853017,126.8840736,2019-09-16,7001220,한국교원대학교,
B000001954,서울미래초등학교,초등학교,2002-03-01,공립,본교,운영,서울특별시 구로구 구로동 3-13,서울특별시 구로구 새말로 73,7010000,서울특별시교육청,7041000,서울특별시남부교육지원청,2013-11-29,2019-09-10,37.5050160,126.8879424,2019-09-16,7001220,한국교원대학교,
B000001955,서울고원초등학교,초등학교,2004-03-01,공립,본교,운영,서울특별시 구로구 고척동 66-26,서울특별시 구로구 경인로46길 13,7010000,서울특별시교육청,7041000,서울특별시남부교육지원청,2013-11-29,2019-09-10,37.4974706,126.8659718,2019-09-16,7001220,한국교원대학교,
B000001956,서울고산초등학교,초등학교,1991-10-29,공립,본교,운영,서울특별시 구로구 고척동 76-10,서울특별시 구로구 중앙로 6,7010000,서울특별시교육청,7041000,서울특별시남부교육지원청,2013-11-29,2019-09-10,37.4992418,126.8653696,2019-09-16,7001220,한국교원대학교,
B000001957,서울개웅초등학교,초등학교,1998-10-25,공립,본교,운영,서울특별시 구로구 개봉동 273-18,서울특별시 구로구 개봉로11길 98,7010000,서울특별시교육청,7041000,서울특별시남부교육지원청,2013-11-29,2019-09-10,37.4885697,126.8500524,2019-09-16,7001220,한국교원대학교,
B000001958,서울개명초등학교,초등학교,1984-05-04,공립,본교,운영,서울특별시 구로구 개봉동 314-165,서울특별시 구로구 개봉로1다길 16-9,7010000,서울특별시교육청,7041000,서울특별시남부교육지원청,2013-11-29,2019-09-10,37.4828583,126.8505447,2019-09-16,7001220,한국교원대학교,
B000001959,서울온수초등학교,초등학교,1984-09-19,공립,본교,운영,서울특별시 구로구 온수동 9-34,서울특별시 구로구 부일로 893,7010000,서울특별시교육청,7041000,서울특별시남부교육지원청,2013-11-29,2019-09-10,37.4940717,126.8259930,2019-09-16,7001220,한국교원대학교,
B000001960,서울매봉초등학교,초등학교,1985-10-28,공립,본교,운영,서울특별시 구로구 개봉동 3,서울특별시 구로구 고척로21길 55,7010000,서울특별시교육청,7041000,서울특별시남부교육지원청,2013-11-29,2019-09-10,37.5046996,126.8443750,2019-09-16,7001220,한국교원대학교,
B000001961,서울개봉초등학교,초등학교,1971-09-01,공립,본교,운영,서울특별시 구로구 개봉동 266,서울특별시 구로구 개봉로16길 30-11,7010000,서울특별시교육청,7041000,서울특별시남부교육지원청,2013-11-29,2019-09-10,37.4897274,126.8583060,2019-09-16,7001220,한국교원대학교,
B000001962,서울고척초등학교,초등학교,1967-04-07,공립,본교,운영,서울특별시 구로구 고척동 129-3,서울특별시 구로구 경서로 31,7010000,서울특별시교육청,7041000,서울특별시남부교육지원청,2013-11-29,2019-09-10,37.5006668,126.8569791,2019-09-16,7001220,한국교원대학교,
B000001963,서울덕의초등학교,초등학교,1983-12-01,공립,본교,운영,서울특별시 구로구 고척동 217,서울특별시 구로구 고척로 213,7010000,서울특별시교육청,7041000,서울특별시남부교육지원청,2013-11-29,2019-09-10,37.5062766,126.8567988,2019-09-16,7001220,한국교원대학교,
B000001964,서울세곡초등학교,초등학교,1972-09-01,공립,본교,운영,서울특별시 구로구 고척동 253-129,서울특별시 구로구 고척로33길 34,7010000,서울특별시교육청,7041000,서울특별시남부교육지원청,2013-11-29,2019-09-10,37.5048823,126.8490580,2019-09-16,7001220,한국교원대학교,
B000001965,서울동구로초등학교,초등학교,1972-03-01,공립,본교,운영,서울특별시 구로구 구로동 93,서울특별시 구로구 구로중앙로14길 43,7010000,서울특별시교육청,7041000,서울특별시남부교육지원청,2013-11-29,2019-09-10,37.4950456,126.8923106,2019-09-16,7001220,한국교원대학교,
B000001966,서울신구로초등학교,초등학교,1982-10-26,공립,본교,운영,서울특별시 구로구 구로동 105,서울특별시 구로구 가마산로27길 69,7010000,서울특별시교육청,7041000,서울특별시남부교육지원청,2013-11-29,2019-09-10,37.4995520,126.8893658,2019-09-16,7001220,한국교원대학교,
B000001967,서울영서초등학교,초등학교,1979-09-28,공립,본교,운영,서울특별시 구로구 구로동 165-1,서울특별시 구로구 도림로20길 57,7010000,서울특별시교육청,7041000,서울특별시남부교육지원청,2013-11-29,2019-09-10,37.4882883,126.8946742,2019-09-16,7001220,한국교원대학교,
B000001968,서울구로남초등학교,초등학교,1964-03-11,공립,본교,운영,서울특별시 구로구 구로동 253,서울특별시 구로구 디지털로27길 76,7010000,서울특별시교육청,7041000,서울특별시남부교육지원청,2013-11-29,2019-09-10,37.4848279,126.8905958,2019-09-16,7001220,한국교원대학교,
B000001969,서울구로초등학교,초등학교,1950-06-20,공립,본교,운영,서울특별시 구로구 구로동 443,서울특별시 구로구 구로중앙로27나길 9,7010000,서울특별시교육청,7041000,서울특별시남부교육지원청,2013-11-29,2019-09-10,37.4974612410,126.8865523520,2019-09-16,7001220,한국교원대학교,
B000001970,서울구일초등학교,초등학교,1987-10-22,공립,본교,운영,서울특별시 구로구 구로동 685-221,서울특별시 구로구 구일로 68,7010000,서울특별시교육청,7041000,서울특별시남부교육지원청,2013-11-29,2019-09-10,37.4927407,126.8729387,2019-09-16,7001220,한국교원대학교,
B000001971,서울신미림초등학교,초등학교,2002-03-02,공립,본교,운영,서울특별시 구로구 신도림동 398-28,서울특별시 구로구 신도림로 26,7010000,서울특별시교육청,7041000,서울특별시남부교육지원청,2013-11-29,2019-09-10,37.5069274,126.8794934,2019-09-16,7001220,한국교원대학교,
B000001972,서울신도림초등학교,초등학교,1982-10-22,공립,본교,운영,서울특별시 구로구 신도림동 300-6,서울특별시 구로구 신도림로19길 44,7010000,서울특별시교육청,7041000,서울특별시남부교육지원청,2013-11-29,2019-09-10,37.5123256,126.8833965,2019-09-16,7001220,한국교원대학교,
B000001973,서울오류초등학교,초등학교,1943-05-23,공립,본교,운영,서울특별시 구로구 오류동 20-1,서울특별시 구로구 경인로19길 39,7010000,서울특별시교육청,7041000,서울특별시남부교육지원청,2013-11-29,2019-09-10,37.4981498,126.8423578,2019-09-16,7001220,한국교원대학교,
B000001974,서울오정초등학교,초등학교,1986-04-29,공립,본교,운영,서울특별시 구로구 오류동 108-28,서울특별시 구로구 경인로2길 10,7010000,서울특별시교육청,7041000,서울특별시남부교육지원청,2013-11-29,2019-09-10,37.4896240,126.8265149,2019-09-16,7001220,한국교원대학교,
B000001975,서울오류남초등학교,초등학교,1982-06-01,공립,본교,운영,서울특별시 구로구 오류동 191-1,서울특별시 구로구 서해안로24길 22,7010000,서울특별시교육청,7041000,서울특별시남부교육지원청,2013-11-29,2019-09-10,37.4896067,126.8387106,2019-09-16,7001220,한국교원대학교,
B000001976,서울두산초등학교,초등학교,1985-10-30,공립,본교,운영,서울특별시 금천구 독산동 1002-5,서울특별시 금천구 범안로11길 3,7010000,서울특별시교육청,7041000,서울특별시남부교육지원청,2013-11-29,2019-09-10,37.4672494,126.8909721,2019-09-16,7001220,한국교원대학교,
B000001977,서울문교초등학교,초등학교,1993-05-06,공립,본교,운영,서울특별시 금천구 독산동 산202-1,서울특별시 금천구 독산로54길 102,7010000,서울특별시교육청,7041000,서울특별시남부교육지원청,2013-11-29,2019-09-10,37.4667151,126.9089754,2019-09-16,7001220,한국교원대학교,
B000001978,서울영남초등학교,초등학교,1956-05-17,공립,본교,운영,서울특별시 금천구 독산동 59-27,서울특별시 금천구 문성로 62-15,7010000,서울특별시교육청,7041000,서울특별시남부교육지원청,2013-11-29,2019-09-10,37.4754537,126.9094339,2019-09-16,7001220,한국교원대학교,
B000001979,서울금동초등학교,초등학교,2003-03-01,공립,본교,운영,서울특별시 금천구 시흥동 1013-1,서울특별시 금천구 금하로30길 53,7010000,서울특별시교육청,7041000,서울특별시남부교육지원청,2013-11-29,2019-09-10,37.4474274,126.9164244,2019-09-16,7001220,한국교원대학교,
B000001980,서울문백초등학교,초등학교,1981-09-18,공립,본교,운영,서울특별시 금천구 시흥동 564-5,서울특별시 금천구 시흥대로47길 43-1,7010000,서울특별시교육청,7041000,서울특별시남부교육지원청,2013-11-29,2019-09-10,37.4470903,126.8995074,2019-09-16,7001220,한국교원대학교,
B000001981,서울신흥초등학교,초등학교,1991-10-30,공립,본교,운영,서울특별시 금천구 시흥동 704-56,서울특별시 금천구 독산로36 나 길 21,7010000,서울특별시교육청,7041000,서울특별시남부교육지원청,2013-11-29,2019-09-10,37.4596867,126.9090436,2019-09-16,7001220,한국교원대학교,
B000001982,서울가산초등학교,초등학교,1984-06-14,공립,본교,운영,서울특별시 금천구 독산동 143-23,서울특별시 금천구 남부순환로 1304-11,7010000,서울특별시교육청,7041000,서울특별시남부교육지원청,2013-11-29,2019-09-10,37.4781195,126.8964050,2019-09-16,7001220,한국교원대학교,
B000001983,서울정심초등학교,초등학교,1983-03-01,공립,본교,운영,서울특별시 금천구 독산동 182-44,서울특별시 금천구 독산로78다길 89,7010000,서울특별시교육청,7041000,서울특별시남부교육지원청,2013-11-29,2019-09-10,37.4717252,126.9083606,2019-09-16,7001220,한국교원대학교,
B000001984,서울문성초등학교,초등학교,1956-04-06,공립,본교,운영,서울특별시 금천구 독산동 982,서울특별시 금천구 시흥대로 460,7010000,서울특별시교육청,7041000,서울특별시남부교육지원청,2013-11-29,2019-09-10,37.4747768,126.8994644,2019-09-16,7001220,한국교원대학교,
B000001985,서울독산초등학교,초등학교,1978-04-11,공립,본교,운영,서울특별시 금천구 독산동 1034,서울특별시 금천구 시흥대로104길 31,7010000,서울특별시교육청,7041000,서울특별시남부교육지원청,2013-11-29,2019-09-10,37.4655786,126.9000569,2019-09-16,7001220,한국교원대학교,
B000001986,서울안천초등학교,초등학교,1991-10-04,공립,본교,운영,서울특별시 금천구 독산동 1090,서울특별시 금천구 한내로 69-16,7010000,서울특별시교육청,7041000,서울특별시남부교육지원청,2013-11-29,2019-09-10,37.4585946,126.8883555,2019-09-16,7001220,한국교원대학교,
B000001987,서울금천초등학교,초등학교,1984-04-17,공립,본교,운영,서울특별시 금천구 시흥동 218-1,서울특별시 금천구 탑골로5길 60,7010000,서울특별시교육청,7041000,서울특별시남부교육지원청,2013-11-29,2019-09-10,37.4546475,126.9126228,2019-09-16,7001220,한국교원대학교,
B000001988,서울탑동초등학교,초등학교,1967-12-04,공립,본교,운영,서울특별시 금천구 시흥동 230,서울특별시 금천구 탑골로 47-3,7010000,서울특별시교육청,7041000,서울특별시남부교육지원청,2013-11-29,2019-09-10,37.4524341,126.9149142,2019-09-16,7001220,한국교원대학교,
B000001989,서울백산초등학교,초등학교,1974-03-26,공립,본교,운영,서울특별시 금천구 시흥동 438-5,서울특별시 금천구 시흥대로38길 78,7010000,서울특별시교육청,7041000,서울특별시남부교육지원청,2013-11-29,2019-09-10,37.4466467,126.9052470,2019-09-16,7001220,한국교원대학교,
B000001990,서울금산초등학교,초등학교,1998-10-16,공립,본교,운영,서울특별시 금천구 시흥동 653-27,서울특별시 금천구 시흥대로24길 57,7010000,서울특별시교육청,7041000,서울특별시남부교육지원청,2013-11-29,2019-09-10,37.4418157,126.9083030,2019-09-16,7001220,한국교원대학교,
B000001992,서울시흥초등학교,초등학교,1911-07-01,공립,본교,운영,서울특별시 금천구 시흥동 841-19,서울특별시 금천구 독산로23길 26,7010000,서울특별시교육청,7041000,서울특별시남부교육지원청,2013-11-29,2019-09-10,37.4546436,126.9049575,2019-09-16,7001220,한국교원대학교,
B000001993,동광초등학교,초등학교,2001-03-05,사립,본교,운영,서울특별시 금천구 시흥동 산100-6,서울특별시 금천구 탑골로10길 45,7010000,서울특별시교육청,7041000,서울특별시남부교육지원청,2013-11-29,2019-09-10,37.4516719331,126.9168874359,2019-09-16,7001220,한국교원대학교,
B000001994,서울여의도초등학교,초등학교,1971-11-01,공립,본교,운영,서울특별시 영등포구 여의도동 40-3,서울특별시 영등포구 여의대방로 439,7010000,서울특별시교육청,7041000,서울특별시남부교육지원청,2013-11-29,2019-09-10,37.5228903,126.9368120,2019-09-16,7001220,한국교원대학교,
B000001995,서울영원초등학교,초등학교,2002-09-01,공립,본교,운영,서울특별시 영등포구 영등포동 647-2,서울특별시 영등포구 도영로22길 31,7010000,서울특별시교육청,7041000,서울특별시남부교육지원청,2013-11-29,2019-09-10,37.5107199920,126.9021815984,2019-09-16,7001220,한국교원대학교,
B000001996,서울영중초등학교,초등학교,1949-04-01,공립,본교,운영,서울특별시 영등포구 영등포동7가 53,서울특별시 영등포구 양산로 185,7010000,서울특별시교육청,7041000,서울특별시남부교육지원청,2013-11-29,2019-09-10,37.5236591,126.9038138,2019-09-16,7001220,한국교원대학교,
B000001997,서울영동초등학교,초등학교,1956-05-17,공립,본교,운영,서울특별시 영등포구 당산동 121-22,서울특별시 영등포구 국회대로53길 20,7010000,서울특별시교육청,7041000,서울특별시남부교육지원청,2013-11-29,2019-09-10,37.5270073610,126.9077037214,2019-09-16,7001220,한국교원대학교,
B000001998,서울당서초등학교,초등학교,1984-11-01,공립,본교,운영,서울특별시 영등포구 당산동5가 5-3,서울특별시 영등포구 당산로 187,7010000,서울특별시교육청,7041000,서울특별시남부교육지원청,2013-11-29,2019-09-10,37.5319593,126.8997323,2019-09-16,7001220,한국교원대학교,
B000001999,서울도림초등학교,초등학교,1960-02-01,공립,본교,운영,서울특별시 영등포구 신길동 285-1,서울특별시 영등포구 가마산로65길 22,7010000,서울특별시교육청,7041000,서울특별시남부교육지원청,2013-11-29,2019-09-10,37.5079604,126.9070328,2019-09-16,7001220,한국교원대학교,
B000002000,서울대동초등학교,초등학교,1980-10-02,공립,본교,운영,서울특별시 영등포구 대림동 702,서울특별시 영등포구 대림로21길 6,7010000,서울특별시교육청,7041000,서울특별시남부교육지원청,2013-11-29,2019-09-10,37.4935997,126.9004978,2019-09-16,7001220,한국교원대학교,
B000002001,서울영등포초등학교,초등학교,1945-11-01,공립,본교,운영,서울특별시 영등포구 문래동1가 35-2,서울특별시 영등포구 경인로 756,7010000,서울특별시교육청,7041000,서울특별시남부교육지원청,2013-11-29,2019-09-10,37.5129475656,126.8982150,2019-09-16,7001220,한국교원대학교,
B000002002,서울영문초등학교,초등학교,2005-03-01,공립,본교,운영,서울특별시 영등포구 문래동6가 13,서울특별시 영등포구 문래로 56,7010000,서울특별시교육청,7041000,서울특별시남부교육지원청,2013-11-29,2019-09-10,37.5194948,126.8876868,2019-09-16,7001220,한국교원대학교,
B000002003,서울선유초등학교,초등학교,2007-03-02,공립,본교,운영,서울특별시 영등포구 양평동3가 91,서울특별시 영등포구 선유로43가길 14,7010000,서울특별시교육청,7041000,서울특별시남부교육지원청,2013-11-29,2019-09-10,37.5328162,126.8927942,2019-09-16,7001220,한국교원대학교,
B000002004,서울당중초등학교,초등학교,1949-10-28,공립,본교,운영,서울특별시 영등포구 양평동3가 42,서울특별시 영등포구 선유로 131,7010000,서울특별시교육청,7041000,서울특별시남부교육지원청,2013-11-29,2019-09-10,37.5263783,126.8897251,2019-09-16,7001220,한국교원대학교,
B000002005,서울도신초등학교,초등학교,1973-09-10,공립,본교,운영,서울특별시 영등포구 대림동 741-3,서울특별시 영등포구 도림로53길 32-9,7010000,서울특별시교육청,7041000,서울특별시남부교육지원청,2013-11-29,2019-09-10,37.4987280,126.9008446,2019-09-16,7001220,한국교원대학교,
B000002006,서울신영초등학교,초등학교,1982-07-07,공립,본교,운영,서울특별시 영등포구 대림동 781,서울특별시 영등포구 도신로4길 32,7010000,서울특별시교육청,7041000,서울특별시남부교육지원청,2013-11-29,2019-09-10,37.5006847,126.8957265,2019-09-16,7001220,한국교원대학교,
B000002007,서울신대림초등학교,초등학교,1995-03-01,공립,본교,운영,서울특별시 영등포구 대림동 970-1,서울특별시 영등포구 대림로8길 25,7010000,서울특별시교육청,7041000,서울특별시남부교육지원청,2013-11-29,2019-09-10,37.4922440,126.9058543,2019-09-16,7001220,한국교원대학교,
B000002008,서울영림초등학교,초등학교,1982-10-04,공립,본교,운영,서울특별시 영등포구 대림동 993-16,서울특별시 영등포구 시흥대로173길 14,7010000,서울특별시교육청,7041000,서울특별시남부교육지원청,2013-11-29,2019-09-10,37.4873525,126.9024483,2019-09-16,7001220,한국교원대학교,
B000002009,서울문래초등학교,초등학교,1985-07-10,공립,본교,운영,서울특별시 영등포구 문래동3가 77-7,서울특별시 영등포구 문래로 104,7010000,서울특별시교육청,7041000,서울특별시남부교육지원청,2013-11-29,2019-09-10,37.5185396,126.8932886,2019-09-16,7001220,한국교원대학교,
B000002010,서울영신초등학교,초등학교,1967-11-27,공립,본교,운영,서울특별시 영등포구 신길동 121,서울특별시 영등포구 도신로60길 23,7010000,서울특별시교육청,7041000,서울특별시남부교육지원청,2013-11-29,2019-09-10,37.5099680,126.9180090,2019-09-16,7001220,한국교원대학교,
B000002011,서울대영초등학교,초등학교,1988-04-22,공립,본교,운영,서울특별시 영등포구 신길동 341-1,서울특별시 영등포구 신길로23길 43,7010000,서울특별시교육청,7041000,서울특별시남부교육지원청,2013-11-29,2019-09-10,37.5023694,126.9061518,2019-09-16,7001220,한국교원대학교,
B000002012,서울우신초등학교,초등학교,1915-03-05,공립,본교,운영,서울특별시 영등포구 신길동 210,서울특별시 영등포구 신길로 190,7010000,서울특별시교육청,7041000,서울특별시남부교육지원청,2013-11-29,2019-09-10,37.5095640,126.9118923,2019-09-16,7001220,한국교원대학교,
B000002013,서울대방초등학교,초등학교,1955-04-27,공립,본교,운영,서울특별시 영등포구 신길동 1444,서울특별시 영등포구 여의대방로35길 14,7010000,서울특별시교육청,7041000,서울특별시남부교육지원청,2013-11-29,2019-09-10,37.5026701,126.9191481,2019-09-16,7001220,한국교원대학교,
B000002014,서울대길초등학교,초등학교,1983-09-14,공립,본교,운영,서울특별시 영등포구 신길동 4482,서울특별시 영등포구 대방천로 206,7010000,서울특별시교육청,7041000,서울특별시남부교육지원청,2013-11-29,2019-09-10,37.4977844,126.9132303,2019-09-16,7001220,한국교원대학교,
B000002015,서울당산초등학교,초등학교,1945-08-15,공립,본교,운영,서울특별시 영등포구 양평동4가 323,서울특별시 영등포구 선유로55길 32,7010000,서울특별시교육청,7041000,서울특별시남부교육지원청,2013-11-29,2019-09-10,37.5397741,126.8963677,2019-09-16,7001220,한국교원대학교,
B000002016,서울윤중초등학교,초등학교,1980-04-04,공립,본교,운영,서울특별시 영등포구 여의도동 38,서울특별시 영등포구 여의나루로2길 14,7010000,서울특별시교육청,7041000,서울특별시남부교육지원청,2013-11-29,2019-09-10,37.5197467,126.9228068,2019-09-16,7001220,한국교원대학교,
B000002017,서울초당초등학교,초등학교,1993-10-28,공립,본교,운영,서울특별시 도봉구 방학동 514-2,서울특별시 도봉구 해등로32길 11,7010000,서울특별시교육청,7051000,서울특별시북부교육지원청,2013-11-29,2019-09-10,37.6584988,127.0221014,2019-09-16,7001220,한국교원대학교,
B000002018,서울신학초등학교,초등학교,1988-05-04,공립,본교,운영,서울특별시 도봉구 방학동 460-5,서울특별시 도봉구 방학로 247-21,7010000,서울특별시교육청,7051000,서울특별시북부교육지원청,2013-11-29,2019-09-10,37.6609904,127.0255131,2019-09-16,7001220,한국교원대학교,
B000002019,서울창경초등학교,초등학교,1945-11-01,공립,본교,운영,서울특별시 도봉구 쌍문동 72,서울특별시 도봉구 도봉로129길 54,7010000,서울특별시교육청,7051000,서울특별시북부교육지원청,2013-11-29,2019-09-10,37.6561144,127.0347544,2019-09-16,7001220,한국교원대학교,
B000002020,서울창림초등학교,초등학교,2000-11-01,공립,본교,운영,서울특별시 도봉구 창동 411-8,서울특별시 도봉구 덕릉로63길 46,7010000,서울특별시교육청,7051000,서울특별시북부교육지원청,2013-11-29,2019-09-10,37.6429724,127.0415487,2019-09-16,7001220,한국교원대학교,
B000002021,서울누원초등학교,초등학교,1993-11-11,공립,본교,운영,서울특별시 도봉구 도봉동 22-19,서울특별시 도봉구 마들로 859-44,7010000,서울특별시교육청,7051000,서울특별시북부교육지원청,2013-11-29,2019-09-10,37.6869304,127.0490694,2019-09-16,7001220,한국교원대학교,
B000002022,서울오봉초등학교,초등학교,2000-03-01,공립,본교,운영,서울특별시 도봉구 도봉동 608-22,서울특별시 도봉구 시루봉로 285,7010000,서울특별시교육청,7051000,서울특별시북부교육지원청,2013-11-29,2019-09-10,37.6718842,127.0402882,2019-09-16,7001220,한국교원대학교,
B000002023,서울도봉초등학교,초등학교,1966-09-05,공립,본교,운영,서울특별시 도봉구 도봉동 429-1,서울특별시 도봉구 도봉로173길 96,7010000,서울특별시교육청,7051000,서울특별시북부교육지원청,2013-11-29,2019-09-10,37.6793783,127.0382180,2019-09-16,7001220,한국교원대학교,
B000002024,서울방학초등학교,초등학교,1982-10-07,공립,본교,운영,서울특별시 도봉구 방학동 302,서울특별시 도봉구 도당로9길 34,7010000,서울특별시교육청,7051000,서울특별시북부교육지원청,2013-11-29,2019-09-10,37.6640395,127.0321675,2019-09-16,7001220,한국교원대학교,
B000002025,서울신방학초등학교,초등학교,1986-04-24,공립,본교,운영,서울특별시 도봉구 방학동 310,서울특별시 도봉구 시루봉로 173,7010000,서울특별시교육청,7051000,서울특별시북부교육지원청,2013-11-29,2019-09-10,37.6659578,127.0292294,2019-09-16,7001220,한국교원대학교,
B000002026,서울창도초등학교,초등학교,1982-10-07,공립,본교,운영,서울특별시 도봉구 방학동 722-9,서울특별시 도봉구 방학로 32-28,7010000,서울특별시교육청,7051000,서울특별시북부교육지원청,2013-11-29,2019-09-10,37.6638310,127.0490956,2019-09-16,7001220,한국교원대학교,
B000002027,서울숭미초등학교,초등학교,1983-11-03,공립,본교,운영,서울특별시 도봉구 쌍문동 309-3,서울특별시 도봉구 노해로 179,7010000,서울특별시교육청,7051000,서울특별시북부교육지원청,2013-11-29,2019-09-10,37.6508211,127.0279643,2019-09-16,7001220,한국교원대학교,
B000002028,서울쌍문초등학교,초등학교,1972-08-12,공립,본교,운영,서울특별시 도봉구 쌍문동 360-4,서울특별시 도봉구 우이천로 360,7010000,서울특별시교육청,7051000,서울특별시북부교육지원청,2013-11-29,2019-09-10,37.6489734,127.0243080,2019-09-16,7001220,한국교원대학교,
B000002029,서울백운초등학교,초등학교,1980-08-27,공립,본교,운영,서울특별시 도봉구 쌍문동 422-2,서울특별시 도봉구 삼양로146길 17,7010000,서울특별시교육청,7051000,서울특별시북부교육지원청,2013-11-29,2019-09-10,37.6532035,127.0139875,2019-09-16,7001220,한국교원대학교,
B000002030,서울월천초등학교,초등학교,1989-05-11,공립,본교,운영,서울특별시 도봉구 창동 29,서울특별시 도봉구 노해로70길 96,7010000,서울특별시교육청,7051000,서울특별시북부교육지원청,2013-11-29,2019-09-10,37.6478356,127.0522016,2019-09-16,7001220,한국교원대학교,
B000002031,서울자운초등학교,초등학교,1997-06-11,공립,본교,운영,서울특별시 도봉구 창동 181-19,서울특별시 도봉구 마들로13길 166,7010000,서울특별시교육청,7051000,서울특별시북부교육지원청,2013-11-29,2019-09-10,37.6577174,127.0463946,2019-09-16,7001220,한국교원대학교,
B000002032,서울가인초등학교,초등학교,2004-05-14,공립,본교,운영,서울특별시 도봉구 창동 224-20,서울특별시 도봉구 도봉로136다길 4,7010000,서울특별시교육청,7051000,서울특별시북부교육지원청,2013-11-29,2019-09-10,37.6599068,127.0431592,2019-09-16,7001220,한국교원대학교,
B000002033,서울창동초등학교,초등학교,1930-04-01,공립,본교,운영,서울특별시 도봉구 창동 266,서울특별시 도봉구 해등로16길 81,7010000,서울특별시교육청,7051000,서울특별시북부교육지원청,2013-11-29,2019-09-10,37.6551201,127.0446861,2019-09-16,7001220,한국교원대학교,
B000002034,서울창원초등학교,초등학교,1990-11-30,공립,본교,운영,서울특별시 도봉구 창동 308,서울특별시 도봉구 해등로 103,7010000,서울특별시교육청,7051000,서울특별시북부교육지원청,2013-11-29,2019-09-10,37.6525531,127.0405915,2019-09-16,7001220,한국교원대학교,
B000002035,서울창일초등학교,초등학교,1990-07-16,공립,본교,운영,서울특별시 도봉구 창동 371,서울특별시 도봉구 노해로66길 84,7010000,서울특별시교육청,7051000,서울특별시북부교육지원청,2013-11-29,2019-09-10,37.6471695,127.0476085,2019-09-16,7001220,한국교원대학교,
B000002036,서울신창초등학교,초등학교,1975-05-12,공립,본교,운영,서울특별시 도봉구 창동 468-1,서울특별시 도봉구 덕릉로60길 93,7010000,서울특별시교육청,7051000,서울특별시북부교육지원청,2013-11-29,2019-09-10,37.6361731,127.0421969,2019-09-16,7001220,한국교원대학교,
B000002037,서울신화초등학교,초등학교,1984-10-30,공립,본교,운영,서울특별시 도봉구 창동 504-33,서울특별시 도봉구 우이천로 120,7010000,서울특별시교육청,7051000,서울특별시북부교육지원청,2013-11-29,2019-09-10,37.6326698,127.0408596,2019-09-16,7001220,한국교원대학교,
B000002038,동북초등학교,초등학교,1964-09-15,사립,본교,운영,서울특별시 도봉구 쌍문동 263,서울특별시 도봉구 시루봉로 53,7010000,서울특별시교육청,7051000,서울특별시북부교육지원청,2013-11-29,2019-09-10,37.6553510,127.0268289,2019-09-16,7001220,한국교원대학교,
B000002039,한신초등학교,초등학교,1969-05-06,사립,본교,운영,서울특별시 도봉구 쌍문동 150-1,서울특별시 도봉구 노해로49길 69,7010000,서울특별시교육청,7051000,서울특별시북부교육지원청,2013-11-29,2019-09-10,37.6529105,127.0318063,2019-09-16,7001220,한국교원대학교,
B000002040,서울신계초등학교,초등학교,1982-10-21,공립,본교,운영,서울특별시 노원구 월계동 602,서울특별시 노원구 초안산로 29,7010000,서울특별시교육청,7051000,서울특별시북부교육지원청,2013-11-29,2019-09-10,37.6301665,127.0529880,2019-09-16,7001220,한국교원대학교,
B000002041,서울녹천초등학교,초등학교,1995-10-04,공립,본교,운영,서울특별시 노원구 월계동 322-2,서울특별시 노원구 마들로3길 34,7010000,서울특별시교육청,7051000,서울특별시북부교육지원청,2013-11-29,2019-09-10,37.6288012,127.0631131,2019-09-16,7001220,한국교원대학교,
B000002042,서울덕암초등학교,초등학교,2003-03-03,공립,본교,운영,서울특별시 노원구 상계동 1274,서울특별시 노원구 덕릉로112길 68,7010000,서울특별시교육청,7051000,서울특별시북부교육지원청,2013-11-29,2019-09-10,37.6664888,127.0814678,2019-09-16,7001220,한국교원대학교,
B000002043,서울온곡초등학교,초등학교,1988-10-10,공립,본교,운영,서울특별시 노원구 상계동 638,서울특별시 노원구 한글비석로52길 59,7010000,서울특별시교육청,7051000,서울특별시북부교육지원청,2013-11-29,2019-09-10,37.6676082,127.0657902,2019-09-16,7001220,한국교원대학교,
B000002044,서울상원초등학교,초등학교,1989-09-30,공립,본교,운영,서울특별시 노원구 상계동 645,서울특별시 노원구 한글비석로54길 119,7010000,서울특별시교육청,7051000,서울특별시북부교육지원청,2013-11-29,2019-09-10,37.6671878,127.0598254,2019-09-16,7001220,한국교원대학교,
B000002045,서울불암초등학교,초등학교,1993-09-01,공립,본교,운영,서울특별시 노원구 중계동 366-2,서울특별시 노원구 중계로 178,7010000,서울특별시교육청,7051000,서울특별시북부교육지원청,2013-11-29,2019-09-10,37.6510667,127.0806469,2019-09-16,7001220,한국교원대학교,
B000002046,서울수암초등학교,초등학교,2000-06-07,공립,본교,운영,서울특별시 노원구 중계동 67,서울특별시 노원구 중계로12길 9,7010000,서울특별시교육청,7051000,서울특별시북부교육지원청,2013-11-29,2019-09-10,37.6478737,127.0813164,2019-09-16,7001220,한국교원대학교,
B000002047,서울중계초등학교,초등학교,1975-10-02,공립,본교,운영,서울특별시 노원구 중계동 449-2,서울특별시 노원구 한글비석로19길 39,7010000,서울특별시교육청,7051000,서울특별시북부교육지원청,2013-11-29,2019-09-10,37.6577549,127.0730277,2019-09-16,7001220,한국교원대학교,
B000002048,서울연촌초등학교,초등학교,1945-11-10,공립,본교,운영,서울특별시 노원구 하계동 154-12,서울특별시 노원구 공릉로58길 36,7010000,서울특별시교육청,7051000,서울특별시북부교육지원청,2013-11-29,2019-09-10,37.6350647,127.0728621,2019-09-16,7001220,한국교원대학교,
B000002049,서울태랑초등학교,초등학교,2001-06-11,공립,본교,운영,서울특별시 노원구 공릉동 116,서울특별시 노원구 화랑로51나길 31,7010000,서울특별시교육청,7051000,서울특별시북부교육지원청,2013-11-29,2019-09-10,37.6259486,127.0905347,2019-09-16,7001220,한국교원대학교,
B000002050,서울태릉초등학교,초등학교,1986-05-01,공립,본교,운영,서울특별시 노원구 공릉동 250-5,서울특별시 노원구 노원로1길 36,7010000,서울특별시교육청,7051000,서울특별시북부교육지원청,2013-11-29,2019-09-10,37.6228668,127.0852435,2019-09-16,7001220,한국교원대학교,
B000002051,서울공연초등학교,초등학교,1982-10-21,공립,본교,운영,서울특별시 노원구 공릉동 371-10,서울특별시 노원구 동일로192가길 16,7010000,서울특별시교육청,7051000,서울특별시북부교육지원청,2013-11-29,2019-09-10,37.6272531,127.0741645,2019-09-16,7001220,한국교원대학교,
B000002052,서울용원초등학교,초등학교,1996-05-06,공립,본교,운영,서울특별시 노원구 공릉동 709,서울특별시 노원구 섬밭로 144,7010000,서울특별시교육청,7051000,서울특별시북부교육지원청,2013-11-29,2019-09-10,37.6296027,127.0688931,2019-09-16,7001220,한국교원대학교,
B000002053,서울공릉초등학교,초등학교,1979-04-04,공립,본교,운영,서울특별시 노원구 공릉동 610-1,서울특별시 노원구 동일로173길 12,7010000,서울특별시교육청,7051000,서울특별시북부교육지원청,2013-11-29,2019-09-10,37.6188016,127.0741878,2019-09-16,7001220,한국교원대학교,
B000002054,서울신상계초등학교,초등학교,1970-05-22,공립,본교,운영,서울특별시 노원구 상계동 86-1,서울특별시 노원구 상계로 267,7010000,서울특별시교육청,7051000,서울특별시북부교육지원청,2013-11-29,2019-09-10,37.6674743,127.0757904,2019-09-16,7001220,한국교원대학교,
B000002055,서울상계초등학교,초등학교,1946-09-11,공립,본교,운영,서울특별시 노원구 상계동 402-1,서울특별시 노원구 상계로9길 39,7010000,서울특별시교육청,7051000,서울특별시북부교육지원청,2013-11-29,2019-09-10,37.6593115,127.0662421,2019-09-16,7001220,한국교원대학교,
B000002056,서울계상초등학교,초등학교,1983-11-16,공립,본교,운영,서울특별시 노원구 상계동 447-1,서울특별시 노원구 한글비석로41가길 24,7010000,서울특별시교육청,7051000,서울특별시북부교육지원청,2013-11-29,2019-09-10,37.6627100,127.0682669,2019-09-16,7001220,한국교원대학교,
B000002057,서울상곡초등학교,초등학교,1989-05-03,공립,본교,운영,서울특별시 노원구 상계동 678,서울특별시 노원구 노원로38길 34,7010000,서울특별시교육청,7051000,서울특별시북부교육지원청,2013-11-29,2019-09-10,37.6627218,127.0625150,2019-09-16,7001220,한국교원대학교,
B000002058,서울상월초등학교,초등학교,1990-05-29,공립,본교,운영,서울특별시 노원구 상계동 697,서울특별시 노원구 동일로221길 27,7010000,서울특별시교육청,7051000,서울특별시북부교육지원청,2013-11-29,2019-09-10,37.65865377,127.05698224,2019-09-16,7001220,한국교원대학교,
B000002059,서울당현초등학교,초등학교,1988-02-09,공립,본교,운영,서울특별시 노원구 상계동 742,서울특별시 노원구 동일로213길 52,7010000,서울특별시교육청,7051000,서울특별시북부교육지원청,2013-11-29,2019-09-10,37.6486340,127.0583817,2019-09-16,7001220,한국교원대학교,
B000002060,서울상천초등학교,초등학교,1989-09-30,공립,본교,운영,서울특별시 노원구 상계동 768,서울특별시 노원구 덕릉로 443,7010000,서울특별시교육청,7051000,서울특별시북부교육지원청,2013-11-29,2019-09-10,37.6462819,127.0581071,2019-09-16,7001220,한국교원대학교,
B000002061,서울동일초등학교,초등학교,1989-04-25,공립,본교,운영,서울특별시 노원구 상계동 655,서울특별시 노원구 한글비석로 566,7010000,서울특별시교육청,7051000,서울특별시북부교육지원청,2013-11-29,2019-09-10,37.6651664,127.0545490,2019-09-16,7001220,한국교원대학교,
B000002062,서울노원초등학교,초등학교,1973-09-04,공립,본교,운영,서울특별시 노원구 상계동 1014,서울특별시 노원구 동일로230나길 32,7010000,서울특별시교육청,7051000,서울특별시북부교육지원청,2013-11-29,2019-09-10,37.6733178,127.0582937,2019-09-16,7001220,한국교원대학교,
B000002063,서울노일초등학교,초등학교,1994-11-10,공립,본교,운영,서울특별시 노원구 상계동 1044-2,서울특별시 노원구 동일로 1625,7010000,서울특별시교육청,7051000,서울특별시북부교육지원청,2013-11-29,2019-09-10,37.6732392,127.0547828,2019-09-16,7001220,한국교원대학교,
B000002064,서울수락초등학교,초등학교,1983-04-06,공립,본교,운영,서울특별시 노원구 상계동 1171-2,서울특별시 노원구 동일로 1745,7010000,서울특별시교육청,7051000,서울특별시북부교육지원청,2013-11-29,2019-09-10,37.6842939,127.0548343,2019-09-16,7001220,한국교원대학교,
B000002065,서울한천초등학교,초등학교,1984-05-07,공립,본교,운영,서울특별시 노원구 월계동 3-7,서울특별시 노원구 마들로 45,7010000,서울특별시교육청,7051000,서울특별시북부교육지원청,2013-11-29,2019-09-10,37.6204638,127.0690130,2019-09-16,7001220,한국교원대학교,
B000002066,서울연지초등학교,초등학교,1998-06-12,공립,본교,운영,서울특별시 노원구 월계동 320-8,서울특별시 노원구 월계로55길 48,7010000,서울특별시교육청,7051000,서울특별시북부교육지원청,2013-11-29,2019-09-10,37.6334788,127.0599789,2019-09-16,7001220,한국교원대학교,
B000002067,서울선곡초등학교,초등학교,1975-03-13,공립,본교,운영,서울특별시 노원구 월계동 446,서울특별시 노원구 광운로2길 1,7010000,서울특별시교육청,7051000,서울특별시북부교육지원청,2013-11-29,2019-09-10,37.6184174,127.0582095,2019-09-16,7001220,한국교원대학교,
B000002068,서울월계초등학교,초등학교,1993-05-06,공립,본교,운영,서울특별시 노원구 월계동 561,서울특별시 노원구 월계로45가길 10,7010000,서울특별시교육청,7051000,서울특별시북부교육지원청,2013-11-29,2019-09-10,37.6276242,127.0504153,2019-09-16,7001220,한국교원대학교,
B000002069,서울원광초등학교,초등학교,1992-04-30,공립,본교,운영,서울특별시 노원구 중계동 359,서울특별시 노원구 덕릉로76길 18,7010000,서울특별시교육청,7051000,서울특별시북부교육지원청,2013-11-29,2019-09-10,37.6542123,127.0747887,2019-09-16,7001220,한국교원대학교,
B000002070,서울을지초등학교,초등학교,1994-04-22,공립,본교,운영,서울특별시 노원구 중계동 360,서울특별시 노원구 중계로 239,7010000,서울특별시교육청,7051000,서울특별시북부교육지원청,2013-11-29,2019-09-10,37.6503519,127.0731299,2019-09-16,7001220,한국교원대학교,
B000002071,서울중원초등학교,초등학교,1990-11-14,공립,본교,운영,서울특별시 노원구 중계동 502,서울특별시 노원구 섬밭로 316,7010000,서울특별시교육청,7051000,서울특별시북부교육지원청,2013-11-29,2019-09-10,37.6436702,127.0628262,2019-09-16,7001220,한국교원대학교,
B000002072,서울청계초등학교,초등학교,1895-09-01,공립,본교,운영,서울특별시 노원구 중계동 513-1,서울특별시 노원구 공릉로 431,7010000,서울특별시교육청,7051000,서울특별시북부교육지원청,2013-11-29,2019-09-10,37.6448867,127.0664420,2019-09-16,7001220,한국교원대학교,
B000002073,서울용동초등학교,초등학교,1991-04-23,공립,본교,운영,서울특별시 노원구 중계동 510-1,서울특별시 노원구 한글비석로1길 81-11,7010000,서울특별시교육청,7051000,서울특별시북부교육지원청,2013-11-29,2019-09-10,37.6416784,127.0694760,2019-09-16,7001220,한국교원대학교,
B000002074,서울중현초등학교,초등학교,1990-04-27,공립,본교,운영,서울특별시 노원구 하계동 272-2,서울특별시 노원구 섬밭로 181,7010000,서울특별시교육청,7051000,서울특별시북부교육지원청,2013-11-29,2019-09-10,37.6324175,127.0662355,2019-09-16,7001220,한국교원대학교,
B000002075,서울중평초등학교,초등학교,1988-04-25,공립,본교,운영,서울특별시 노원구 하계동 271,서울특별시 노원구 섬밭로 241,7010000,서울특별시교육청,7051000,서울특별시북부교육지원청,2013-11-29,2019-09-10,37.6372796,127.0640898,2019-09-16,7001220,한국교원대학교,
B000002076,서울상경초등학교,초등학교,1989-05-04,공립,본교,운영,서울특별시 노원구 상계동 621,서울특별시 노원구 수락산로 237,7010000,서울특별시교육청,7051000,서울특별시북부교육지원청,2013-11-29,2019-09-10,37.6702084,127.0513209,2019-09-16,7001220,한국교원대학교,
B000002077,서울상수초등학교,초등학교,1988-10-08,공립,본교,운영,서울특별시 노원구 상계동 755,서울특별시 노원구 동일로216길 66,7010000,서울특별시교육청,7051000,서울특별시북부교육지원청,2013-11-29,2019-09-10,37.6515858,127.0647353,2019-09-16,7001220,한국교원대학교,
B000002078,청원초등학교,초등학교,1965-12-05,사립,본교,운영,서울특별시 노원구 상계동 641,서울특별시 노원구 한글비석로 506,7010000,서울특별시교육청,7051000,서울특별시북부교육지원청,2013-11-29,2019-09-10,37.6660284,127.0620129,2019-09-16,7001220,한국교원대학교,
B000002079,태강삼육초등학교,초등학교,1949-11-19,사립,본교,운영,서울특별시 노원구 공릉동 26-84,서울특별시 노원구 화랑로 815,7010000,서울특별시교육청,7051000,서울특별시북부교육지원청,2013-11-29,2019-09-10,37.6431424,127.1062512,2019-09-16,7001220,한국교원대학교,
B000002080,화랑초등학교,초등학교,1967-12-24,사립,본교,운영,서울특별시 노원구 공릉동 27-22,서울특별시 노원구 화랑로 621,7010000,서울특별시교육청,7051000,서울특별시북부교육지원청,2013-11-29,2019-09-10,37.6292222,127.0905514,2019-09-16,7001220,한국교원대학교,
B000002081,상명초등학교,초등학교,1964-02-06,사립,본교,운영,서울특별시 노원구 중계동 515-1,서울특별시 노원구 덕릉로 541,7010000,서울특별시교육청,7051000,서울특별시북부교육지원청,2013-11-29,2019-09-10,37.6484702,127.0675498,2019-09-16,7001220,한국교원대학교,
B000002082,서울대학교사범대학부설초등학교,초등학교,1946-08-22,국립,본교,운영,서울특별시 종로구 동숭동 199-51,서울특별시 종로구 대학로 64,7010000,서울특별시교육청,7061000,서울특별시중부교육지원청,2013-11-29,2019-09-10,37.5770935,127.0038022,2019-09-16,7001220,한국교원대학교,
B000002083,서울청운초등학교,초등학교,1923-04-01,공립,본교,운영,서울특별시 종로구 청운동 123,서울특별시 종로구 자하문로 105,7010000,서울특별시교육청,7061000,서울특별시중부교육지원청,2013-11-29,2019-09-10,37.5859741,126.9691707,2019-09-16,7001220,한국교원대학교,
B000002084,서울매동초등학교,초등학교,1895-11-15,공립,본교,운영,서울특별시 종로구 필운동 32,서울특별시 종로구 사직로9길 19,7010000,서울특별시교육청,7061000,서울특별시중부교육지원청,2013-11-29,2019-09-10,37.5772345,126.9668504,2019-09-16,7001220,한국교원대학교,
B000002085,서울재동초등학교,초등학교,1895-09-30,공립,본교,운영,서울특별시 종로구 가회동 210,서울특별시 종로구 북촌로4길 7,7010000,서울특별시교육청,7061000,서울특별시중부교육지원청,2013-11-29,2019-09-10,37.5799248,126.9855602,2019-09-16,7001220,한국교원대학교,
B000002086,서울교동초등학교,초등학교,1894-09-18,공립,본교,운영,서울특별시 종로구 경운동 2,서울특별시 종로구 삼일대로 446,7010000,서울특별시교육청,7061000,서울특별시중부교육지원청,2013-11-29,2019-09-10,37.5750047731,126.9881499152,2019-09-16,7001220,한국교원대학교,
B000002087,서울혜화초등학교,초등학교,1910-01-25,공립,본교,운영,서울특별시 종로구 혜화동 13-1,서울특별시 종로구 혜화로 32,7010000,서울특별시교육청,7061000,서울특별시중부교육지원청,2013-11-29,2019-09-10,37.5888137,127.0000249,2019-09-16,7001220,한국교원대학교,
B000002088,서울명신초등학교,초등학교,1971-10-06,공립,본교,운영,서울특별시 종로구 창신동 7-40,서울특별시 종로구 낙산길 250,7010000,서울특별시교육청,7061000,서울특별시중부교육지원청,2013-11-29,2019-09-10,37.5812388,127.0138460,2019-09-16,7001220,한국교원대학교,
B000002089,서울독립문초등학교,초등학교,1957-09-28,공립,본교,운영,서울특별시 종로구 무악동 46-82,서울특별시 종로구 통일로12길 23,7010000,서울특별시교육청,7061000,서울특별시중부교육지원청,2013-11-29,2019-09-10,37.5741366,126.9602466,2019-09-16,7001220,한국교원대학교,
B000002091,서울세검정초등학교,초등학교,1948-11-24,공립,본교,운영,서울특별시 종로구 신영동 219-4,서울특별시 종로구 세검정로9길 1,7010000,서울특별시교육청,7061000,서울특별시중부교육지원청,2013-11-29,2019-09-10,37.6033878,126.9608999,2019-09-16,7001220,한국교원대학교,
B000002092,서울창신초등학교,초등학교,1916-05-20,공립,본교,운영,서울특별시 종로구 창신동 128-32,서울특별시 종로구 지봉로 73,7010000,서울특별시교육청,7061000,서울특별시중부교육지원청,2013-11-29,2019-09-10,37.5760326,127.0143822,2019-09-16,7001220,한국교원대학교,
B000002093,서울효제초등학교,초등학교,1895-11-15,공립,본교,운영,서울특별시 종로구 효제동 255-4,서울특별시 종로구 대학로 12,7010000,서울특별시교육청,7061000,서울특별시중부교육지원청,2013-11-29,2019-09-10,37.5728828,127.0032572,2019-09-16,7001220,한국교원대학교,
B000002094,운현초등학교,초등학교,1986-03-04,사립,본교,운영,서울특별시 종로구 운니동 114-7,서울특별시 종로구 삼일대로 460,7010000,서울특별시교육청,7061000,서울특별시중부교육지원청,2013-11-29,2019-09-10,37.5758393,126.9878190,2019-09-16,7001220,한국교원대학교,
B000002095,상명대학교사범대학부속초등학교,초등학교,1966-05-17,사립,본교,운영,서울특별시 종로구 홍지동 56,서울특별시 종로구 홍지문2길 1,7010000,서울특별시교육청,7061000,서울특별시중부교육지원청,2013-11-29,2019-09-10,37.6005802,126.9567080,2019-09-16,7001220,한국교원대학교,
B000002096,서울남산초등학교,초등학교,1945-11-01,공립,본교,운영,서울특별시 중구 남산동2가 2,서울특별시 중구 퇴계로22길 17,7010000,서울특별시교육청,7061000,서울특별시중부교육지원청,2013-11-29,2019-09-10,37.5600487,126.9867556,2019-09-16,7001220,한국교원대학교,
B000002097,서울덕수초등학교,초등학교,1912-04-01,공립,본교,운영,서울특별시 중구 정동 1-76,서울특별시 중구 덕수궁길 140,7010000,서울특별시교육청,7061000,서울특별시중부교육지원청,2013-11-29,2019-09-10,37.5685606,126.9744424,2019-09-16,7001220,한국교원대학교,
B000002098,서울봉래초등학교,초등학교,1895-09-18,공립,본교,운영,서울특별시 중구 만리동2가 2,서울특별시 중구 손기정로 73,7010000,서울특별시교육청,7061000,서울특별시중부교육지원청,2013-11-29,2019-09-10,37.5561784,126.9637888,2019-09-16,7001220,한국교원대학교,
B000002099,서울광희초등학교,초등학교,1895-07-16,공립,본교,운영,서울특별시 중구 신당동 254-16,서울특별시 중구 다산로 269,7010000,서울특별시교육청,7061000,서울특별시중부교육지원청,2013-11-29,2019-09-10,37.5674432,127.0151801,2019-09-16,7001220,한국교원대학교,
B000002100,서울장충초등학교,초등학교,1953-10-21,공립,본교,운영,서울특별시 중구 신당동 386-86,서울특별시 중구 청구로17길 40,7010000,서울특별시교육청,7061000,서울특별시중부교육지원청,2013-11-29,2019-09-10,37.5594818,127.0114141,2019-09-16,7001220,한국교원대학교,
B000002101,서울신당초등학교,초등학교,2007-03-01,공립,본교,운영,서울특별시 중구 신당동 161-2,서울특별시 중구 난계로 141,7010000,서울특별시교육청,7061000,서울특별시중부교육지원청,2013-11-29,2019-09-10,37.5637150,127.0237242,2019-09-16,7001220,한국교원대학교,
B000002102,서울흥인초등학교,초등학교,1946-11-14,공립,본교,운영,서울특별시 중구 신당동 292-66,서울특별시 중구 청구로6길 11,7010000,서울특별시교육청,7061000,서울특별시중부교육지원청,2013-11-29,2019-09-10,37.5608307,127.0145429,2019-09-16,7001220,한국교원대학교,
B000002103,서울청구초등학교,초등학교,1945-11-01,공립,본교,운영,서울특별시 중구 신당동 330-2,서울특별시 중구 다산로 170,7010000,서울특별시교육청,7061000,서울특별시중부교육지원청,2013-11-29,2019-09-10,37.5582656,127.0141941,2019-09-16,7001220,한국교원대학교,
B000002104,서울충무초등학교,초등학교,1956-03-24,공립,본교,운영,서울특별시 중구 장충동2가 173-7,서울특별시 중구 퇴계로50길 13,7010000,서울특별시교육청,7061000,서울특별시중부교육지원청,2013-11-29,2019-09-10,37.5619668,127.0013460,2019-09-16,7001220,한국교원대학교,
B000002105,리라초등학교,초등학교,1965-05-20,사립,본교,운영,서울특별시 중구 예장동 8-148,서울특별시 중구 소파로2길 7,7010000,서울특별시교육청,7061000,서울특별시중부교육지원청,2013-11-29,2019-09-10,37.5579702,126.9885837,2019-09-16,7001220,한국교원대학교,
B000002106,숭의초등학교,초등학교,1966-02-25,사립,본교,운영,서울특별시 중구 예장동 8-3,서울특별시 중구 소파로2길 10,7010000,서울특별시교육청,7061000,서울특별시중부교육지원청,2013-11-29,2019-09-10,37.5567763,126.9875325,2019-09-16,7001220,한국교원대학교,
B000002107,동산초등학교,초등학교,1966-03-10,사립,본교,운영,서울특별시 중구 신당동 333-579,서울특별시 중구 매봉18길 109,7010000,서울특별시교육청,7061000,서울특별시중부교육지원청,2013-11-29,2019-09-10,37.5562058005,127.0167271919,2019-09-16,7001220,한국교원대학교,
B000002108,서울용산초등학교,초등학교,1945-11-01,공립,본교,운영,서울특별시 용산구 한강로2가 1,서울특별시 용산구 한강대로57길 33,7010000,서울특별시교육청,7061000,서울특별시중부교육지원청,2013-11-29,2019-09-10,37.5356141639,126.9725514162,2019-09-16,7001220,한국교원대학교,
B000002109,서울원효초등학교,초등학교,1982-12-07,공립,본교,운영,서울특별시 용산구 산천동 6-73,서울특별시 용산구 효창원로13길 38,7010000,서울특별시교육청,7061000,서울특별시중부교육지원청,2013-11-29,2019-09-10,37.5362134,126.9516606,2019-09-16,7001220,한국교원대학교,
B000002110,서울청파초등학교,초등학교,1943-09-24,공립,본교,운영,서울특별시 용산구 청파동2가 1-42,서울특별시 용산구 효창원로 228,7010000,서울특별시교육청,7061000,서울특별시중부교육지원청,2013-11-29,2019-09-10,37.5475147,126.9640802,2019-09-16,7001220,한국교원대학교,
B000002111,서울후암초등학교,초등학교,1949-10-08,공립,본교,운영,서울특별시 용산구 후암동 30-138,서울특별시 용산구 두텁바위로 140,7010000,서울특별시교육청,7061000,서울특별시중부교육지원청,2013-11-29,2019-09-10,37.5509911,126.9823336,2019-09-16,7001220,한국교원대학교,
B000002112,서울이태원초등학교,초등학교,1943-05-01,공립,본교,운영,서울특별시 용산구 이태원동 406,서울특별시 용산구 녹사평대로40길 19,7010000,서울특별시교육청,7061000,서울특별시중부교육지원청,2013-11-29,2019-09-10,37.5360669,126.9878590,2019-09-16,7001220,한국교원대학교,
B000002113,서울서빙고초등학교,초등학교,1945-11-01,공립,본교,운영,서울특별시 용산구 서빙고동 235-1,서울특별시 용산구 서빙고로51길 14,7010000,서울특별시교육청,7061000,서울특별시중부교육지원청,2013-11-29,2019-09-10,37.5214444,126.9921325,2019-09-16,7001220,한국교원대학교,
B000002114,서울용암초등학교,초등학교,1965-09-26,공립,본교,운영,서울특별시 용산구 용산동2가 5-2147,서울특별시 용산구 녹사평대로60길 39,7010000,서울특별시교육청,7061000,서울특별시중부교육지원청,2013-11-29,2019-09-10,37.5448696,126.9891625,2019-09-16,7001220,한국교원대학교,
B000002115,서울보광초등학교,초등학교,1962-06-22,공립,본교,운영,서울특별시 용산구 이태원동 15-13,서울특별시 용산구 우사단로 20,7010000,서울특별시교육청,7061000,서울특별시중부교육지원청,2013-11-29,2019-09-10,37.5324666,126.9963946,2019-09-16,7001220,한국교원대학교,
B000002116,서울한강초등학교,초등학교,1960-07-14,공립,본교,운영,서울특별시 용산구 한강로3가 65-5,서울특별시 용산구 한강대로14길 9,7010000,서울특별시교육청,7061000,서울특별시중부교육지원청,2013-11-29,2019-09-10,37.5252266,126.9651087,2019-09-16,7001220,한국교원대학교,
B000002117,서울한남초등학교,초등학교,1906-09-23,공립,본교,운영,서울특별시 용산구 한남동 726-1,서울특별시 용산구 한남대로 112,7010000,서울특별시교육청,7061000,서울특별시중부교육지원청,2013-11-29,2019-09-10,37.5392493,127.0051252,2019-09-16,7001220,한국교원대학교,
B000002118,서울금양초등학교,초등학교,1915-09-15,공립,본교,운영,서울특별시 용산구 효창동 126-4,서울특별시 용산구 효창원로 137,7010000,서울특별시교육청,7061000,서울특별시중부교육지원청,2013-11-29,2019-09-10,37.5406238,126.9613359,2019-09-16,7001220,한국교원대학교,
B000002119,서울삼광초등학교,초등학교,1945-11-01,공립,본교,운영,서울특별시 용산구 후암동 190-2,서울특별시 용산구 두텁바위로1나길 19,7010000,서울특별시교육청,7061000,서울특별시중부교육지원청,2013-11-29,2019-09-10,37.5473202,126.9768231,2019-09-16,7001220,한국교원대학교,
B000002120,서울남정초등학교,초등학교,1945-11-01,공립,본교,운영,서울특별시 용산구 원효로2가 54-1,서울특별시 용산구 원효로64길 17-10,7010000,서울특별시교육청,7061000,서울특별시중부교육지원청,2013-11-29,2019-09-10,37.5360588,126.9649864,2019-09-16,7001220,한국교원대학교,
B000002121,서울신용산초등학교,초등학교,1968-09-25,공립,본교,운영,서울특별시 용산구 이촌동 301-75,서울특별시 용산구 이촌로 255,7010000,서울특별시교육청,7061000,서울특별시중부교육지원청,2013-11-29,2019-09-10,37.5201940,126.9756071,2019-09-16,7001220,한국교원대학교,
B000002122,신광초등학교,초등학교,1964-11-26,사립,본교,운영,서울특별시 용산구 청파동3가 100,서울특별시 용산구 청파로 263,7010000,서울특별시교육청,7061000,서울특별시중부교육지원청,2013-11-29,2019-09-10,37.5431703,126.9699957,2019-09-16,7001220,한국교원대학교,
B000002123,서울방이초등학교,초등학교,1984-04-04,공립,본교,운영,서울특별시 송파구 방이동 167,서울특별시 송파구 위례성대로10길 4,7010000,서울특별시교육청,7071000,서울특별시강동송파교육지원청,2013-11-29,2019-09-10,37.5130915,127.1205626,2019-09-16,7001220,한국교원대학교,
B000002124,서울가락초등학교,초등학교,1981-09-09,공립,본교,운영,서울특별시 송파구 가락동 477,서울특별시 송파구 송파대로37길 45,7010000,서울특별시교육청,7071000,서울특별시강동송파교육지원청,2013-11-29,2019-09-10,37.5001667,127.1076425,2019-09-16,7001220,한국교원대학교,
B000002125,서울평화초등학교,초등학교,1992-10-21,공립,본교,운영,서울특별시 송파구 가락동 106,서울특별시 송파구 송파대로26길 22,7010000,서울특별시교육청,7071000,서울특별시강동송파교육지원청,2013-11-29,2019-09-10,37.4914378,127.1228091,2019-09-16,7001220,한국교원대학교,
B000002126,서울중대초등학교,초등학교,1924-11-13,공립,본교,운영,서울특별시 송파구 송파동 191,서울특별시 송파구 송파대로36길 8,7010000,서울특별시교육청,7071000,서울특별시강동송파교육지원청,2013-11-29,2019-09-10,37.4994062,127.1135642,2019-09-16,7001220,한국교원대학교,
B000002127,서울문덕초등학교,초등학교,1993-10-26,공립,본교,운영,서울특별시 송파구 문정동 90-3,서울특별시 송파구 송이로34길 60,7010000,서울특별시교육청,7071000,서울특별시강동송파교육지원청,2013-11-29,2019-09-10,37.4852891,127.1275957,2019-09-16,7001220,한국교원대학교,
B000002128,서울문정초등학교,초등학교,1985-04-17,공립,본교,운영,서울특별시 송파구 문정동 12,서울특별시 송파구 문정로5길 20,7010000,서울특별시교육청,7071000,서울특별시강동송파교육지원청,2013-11-29,2019-09-10,37.4884717,127.1289195,2019-09-16,7001220,한국교원대학교,
B000002129,서울가원초등학교,초등학교,1989-04-20,공립,본교,운영,서울특별시 송파구 문정동 150-10,서울특별시 송파구 중대로4길 8,7010000,서울특별시교육청,7071000,서울특별시강동송파교육지원청,2013-11-29,2019-09-10,37.4893692,127.1110221,2019-09-16,7001220,한국교원대학교,
B000002130,서울문현초등학교,초등학교,2007-12-06,공립,본교,운영,서울특별시 송파구 장지동 836,서울특별시 송파구 충민로 137,7010000,서울특별시교육청,7071000,서울특별시강동송파교육지원청,2013-11-29,2019-09-10,37.4827534,127.1302223,2019-09-16,7001220,한국교원대학교,
B000002131,서울잠일초등학교,초등학교,1976-03-12,공립,본교,운영,서울특별시 송파구 잠실동 19-1,서울특별시 송파구 올림픽로 95,7010000,서울특별시교육청,7071000,서울특별시강동송파교육지원청,2013-11-29,2019-09-10,37.5147399506,127.0816350840,2019-09-16,7001220,한국교원대학교,
B000002132,서울잠신초등학교,초등학교,1981-10-30,공립,본교,운영,서울특별시 송파구 잠실동 22-4,서울특별시 송파구 잠실로 32,7010000,서울특별시교육청,7071000,서울특별시강동송파교육지원청,2013-11-29,2019-09-10,37.5141141,127.0879195,2019-09-16,7001220,한국교원대학교,
B000002133,서울송전초등학교,초등학교,1978-10-31,공립,본교,운영,서울특별시 송파구 잠실동 44-2,서울특별시 송파구 석촌호수로 159,7010000,서울특별시교육청,7071000,서울특별시강동송파교육지원청,2013-11-29,2019-09-10,37.5084993,127.0949748,2019-09-16,7001220,한국교원대학교,
B000002134,서울잠동초등학교,초등학교,1980-09-29,공립,본교,운영,서울특별시 송파구 신천동 7-2,서울특별시 송파구 올림픽로35길 122,7010000,서울특별시교육청,7071000,서울특별시강동송파교육지원청,2013-11-29,2019-09-10,37.5179644,127.1001543,2019-09-16,7001220,한국교원대학교,
B000002135,서울잠실초등학교,초등학교,1975-11-01,공립,본교,운영,서울특별시 송파구 신천동 20-2,서울특별시 송파구 올림픽로35길 20,7010000,서울특별시교육청,7071000,서울특별시강동송파교육지원청,2013-11-29,2019-09-10,37.5201075,127.111310141,2019-09-16,7001220,한국교원대학교,
B000002136,서울잠현초등학교,초등학교,2008-10-27,공립,본교,운영,서울특별시 송파구 신천동 17-2,서울특별시 송파구 올림픽로37길 109,7010000,서울특별시교육청,7071000,서울특별시강동송파교육지원청,2013-11-29,2019-09-10,37.5225856923,127.1047786,2019-09-16,7001220,한국교원대학교,
B000002137,서울신가초등학교,초등학교,1988-10-20,공립,본교,운영,서울특별시 송파구 가락동 43-1,서울특별시 송파구 송이로 75,7010000,서울특별시교육청,7071000,서울특별시강동송파교육지원청,2013-11-29,2019-09-10,37.5003769,127.1198579,2019-09-16,7001220,한국교원대학교,
B000002138,서울가주초등학교,초등학교,1996-11-08,공립,본교,운영,서울특별시 송파구 가락동 140-6,서울특별시 송파구 오금로40길 37,7010000,서울특별시교육청,7071000,서울특별시강동송파교육지원청,2013-11-29,2019-09-10,37.4965216,127.1293812,2019-09-16,7001220,한국교원대학교,
B000002139,서울가동초등학교,초등학교,1990-04-25,공립,본교,운영,서울특별시 송파구 가락동 163,서울특별시 송파구 중대로20길 47,7010000,서울특별시교육청,7071000,서울특별시강동송파교육지원청,2013-11-29,2019-09-10,37.4973198,127.1302190,2019-09-16,7001220,한국교원대학교,
B000002140,서울영풍초등학교,초등학교,1982-10-10,공립,본교,운영,서울특별시 송파구 거여동 12,서울특별시 송파구 오금로57길 15,7010000,서울특별시교육청,7071000,서울특별시강동송파교육지원청,2013-11-29,2019-09-10,37.4962643,127.1429536,2019-09-16,7001220,한국교원대학교,
B000002141,서울거원초등학교,초등학교,1997-11-07,공립,본교,운영,서울특별시 송파구 거여동 296-1,서울특별시 송파구 양산로2길 26,7010000,서울특별시교육청,7071000,서울특별시강동송파교육지원청,2013-11-29,2019-09-10,37.4878297,127.1447579,2019-09-16,7001220,한국교원대학교,
B000002142,서울남천초등학교,초등학교,1984-05-03,공립,본교,운영,서울특별시 송파구 마천동 53,서울특별시 송파구 성내천로 207,7010000,서울특별시교육청,7071000,서울특별시강동송파교육지원청,2013-11-29,2019-09-10,37.5011739,127.1505715,2019-09-16,7001220,한국교원대학교,
B000002143,서울마천초등학교,초등학교,1978-05-04,공립,본교,운영,서울특별시 송파구 마천동 183-4,서울특별시 송파구 마천로61다길 24,7010000,서울특별시교육청,7071000,서울특별시강동송파교육지원청,2013-11-29,2019-09-10,37.4954974,127.1524746,2019-09-16,7001220,한국교원대학교,
B000002144,서울오륜초등학교,초등학교,1989-04-19,공립,본교,운영,서울특별시 송파구 방이동 89-16,서울특별시 송파구 양재대로 1196,7010000,서울특별시교육청,7071000,서울특별시강동송파교육지원청,2013-11-29,2019-09-10,37.5122054,127.1347813,2019-09-16,7001220,한국교원대학교,
B000002145,서울세륜초등학교,초등학교,1989-04-19,공립,본교,운영,서울특별시 송파구 방이동 89-23,서울특별시 송파구 양재대로 1264,7010000,서울특별시교육청,7071000,서울특별시강동송파교육지원청,2013-11-29,2019-09-10,37.5183539,127.1341356,2019-09-16,7001220,한국교원대학교,
B000002146,서울방산초등학교,초등학교,1992-10-22,공립,본교,운영,서울특별시 송파구 방이동 220-4,서울특별시 송파구 오금로27길 42,7010000,서울특별시교육청,7071000,서울특별시강동송파교육지원청,2013-11-29,2019-09-10,37.5096455,127.1211143,2019-09-16,7001220,한국교원대학교,
B000002147,서울삼전초등학교,초등학교,1983-05-10,공립,본교,운영,서울특별시 송파구 삼전동 63,서울특별시 송파구 백제고분로28길 19,7010000,서울특별시교육청,7071000,서울특별시강동송파교육지원청,2013-11-29,2019-09-10,37.5015071,127.0927452,2019-09-16,7001220,한국교원대학교,
B000002148,서울석촌초등학교,초등학교,1990-05-10,공립,본교,운영,서울특별시 송파구 석촌동 267,서울특별시 송파구 가락로11길 26,7010000,서울특별시교육청,7071000,서울특별시강동송파교육지원청,2013-11-29,2019-09-10,37.5027584,127.1048724,2019-09-16,7001220,한국교원대학교,
B000002149,서울송파초등학교,초등학교,1985-10-21,공립,본교,운영,서울특별시 송파구 송파동 114,서울특별시 송파구 백제고분로 400,7010000,서울특별시교육청,7071000,서울특별시강동송파교육지원청,2013-11-29,2019-09-10,37.5070869,127.1108763,2019-09-16,7001220,한국교원대학교,
B000002150,서울오금초등학교,초등학교,1993-10-28,공립,본교,운영,서울특별시 송파구 오금동 7,서울특별시 송파구 위례성대로22길 11,7010000,서울특별시교육청,7071000,서울특별시강동송파교육지원청,2013-11-29,2019-09-10,37.5091557,127.1317971,2019-09-16,7001220,한국교원대학교,
B000002151,서울거여초등학교,초등학교,1967-11-23,공립,본교,운영,서울특별시 송파구 오금동 108,서울특별시 송파구 마천로25길 18,7010000,서울특별시교육청,7071000,서울특별시강동송파교육지원청,2013-11-29,2019-09-10,37.5047528,127.1410936,2019-09-16,7001220,한국교원대학교,
B000002152,서울개롱초등학교,초등학교,2008-03-03,공립,본교,운영,서울특별시 송파구 오금동 159,서울특별시 송파구 문정로 211,7010000,서울특별시교육청,7071000,서울특별시강동송파교육지원청,2013-11-29,2019-09-10,37.4973677,127.1398426,2019-09-16,7001220,한국교원대학교,
B000002153,서울잠전초등학교,초등학교,1981-11-26,공립,본교,운영,서울특별시 송파구 잠실동 229,서울특별시 송파구 올림픽로12길 51,7010000,서울특별시교육청,7071000,서울특별시강동송파교육지원청,2013-11-29,2019-09-10,37.5071595,127.0842067,2019-09-16,7001220,한국교원대학교,
B000002154,서울풍납초등학교,초등학교,1980-08-01,공립,본교,운영,서울특별시 송파구 풍납동 165,서울특별시 송파구 풍성로 43,7010000,서울특별시교육청,7071000,서울특별시강동송파교육지원청,2013-11-29,2019-09-10,37.5348603,127.1174625,2019-09-16,7001220,한국교원대학교,
B000002155,서울토성초등학교,초등학교,1984-04-21,공립,본교,운영,서울특별시 송파구 풍납동 251,서울특별시 송파구 풍성로20길 44,7010000,서울특별시교육청,7071000,서울특별시강동송파교육지원청,2013-11-29,2019-09-10,37.5316475,127.1155695,2019-09-16,7001220,한국교원대학교,
B000002156,서울풍성초등학교,초등학교,1991-04-24,공립,본교,운영,서울특별시 송파구 풍납동 388-8,서울특별시 송파구 강동대로2길 13,7010000,서울특별시교육청,7071000,서울특별시강동송파교육지원청,2013-11-29,2019-09-10,37.5261388,127.1137028,2019-09-16,7001220,한국교원대학교,
B000002157,서울아주초등학교,초등학교,1987-04-24,공립,본교,운영,서울특별시 송파구 잠실동 115,서울특별시 송파구 올림픽로4길 59,7010000,서울특별시교육청,7071000,서울특별시강동송파교육지원청,2013-11-29,2019-09-10,37.5058275216,127.0757640,2019-09-16,7001220,한국교원대학교,
B000002158,서울버들초등학교,초등학교,2007-09-01,공립,본교,운영,서울특별시 송파구 잠실동 35-6,서울특별시 송파구 석촌호수로 81,7010000,서울특별시교육청,7071000,서울특별시강동송파교육지원청,2013-11-29,2019-09-10,37.5103926,127.0890677,2019-09-16,7001220,한국교원대학교,
B000002159,서울신천초등학교,초등학교,1959-05-26,공립,본교,운영,서울특별시 송파구 잠실동 27-5,서울특별시 송파구 올림픽로 215,7010000,서울특별시교육청,7071000,서울특별시강동송파교육지원청,2013-11-29,2019-09-10,37.5137862,127.0953838,2019-09-16,7001220,한국교원대학교,
B000002161,서울선린초등학교,초등학교,1985-10-24,공립,본교,운영,서울특별시 강동구 둔촌동 91-17,서울특별시 강동구 진황도로61길 29,7010000,서울특별시교육청,7071000,서울특별시강동송파교육지원청,2013-11-29,2019-09-10,37.5294470,127.1460489,2019-09-16,7001220,한국교원대학교,
B000002162,서울고명초등학교,초등학교,1980-11-29,공립,본교,운영,서울특별시 강동구 명일동 296-1,서울특별시 강동구 고덕로46길 53,7010000,서울특별시교육청,7071000,서울특별시강동송파교육지원청,2013-11-29,2019-09-10,37.5530361,127.1468200,2019-09-16,7001220,한국교원대학교,
B000002163,서울묘곡초등학교,초등학교,1985-10-23,공립,본교,운영,서울특별시 강동구 고덕동 498,서울특별시 강동구 동남로79길 46,7010000,서울특별시교육청,7071000,서울특별시강동송파교육지원청,2013-11-29,2019-09-10,37.5584546,127.1531803,2019-09-16,7001220,한국교원대학교,
B000002164,서울강일초등학교,초등학교,1993-07-20,공립,본교,운영,서울특별시 강동구 강일동 685,서울특별시 강동구 아리수로98길 24,7010000,서울특별시교육청,7071000,서울특별시강동송파교육지원청,2013-11-29,2019-09-10,37.5649609,127.1771117,2019-09-16,7001220,한국교원대학교,
B000002165,서울고덕초등학교,초등학교,1984-05-11,공립,본교,운영,서울특별시 강동구 고덕동 158,서울특별시 강동구 아리수로82길 42,7010000,서울특별시교육청,7071000,서울특별시강동송파교육지원청,2013-11-29,2019-09-10,37.5610786,127.1663766,2019-09-16,7001220,한국교원대학교,
B000002166,서울강덕초등학교,초등학교,1987-04-06,공립,본교,운영,서울특별시 강동구 고덕동 222,서울특별시 강동구 동남로82길 94-54,7010000,서울특별시교육청,7071000,서울특별시강동송파교육지원청,2013-11-29,2019-09-10,37.5589366,127.1607703,2019-09-16,7001220,한국교원대학교,
B000002167,서울명덕초등학교,초등학교,1985-05-03,공립,본교,운영,서울특별시 강동구 고덕동 487-15,서울특별시 강동구 양재대로156길 11,7010000,서울특별시교육청,7071000,서울특별시강동송파교육지원청,2013-11-29,2019-09-10,37.5568963,127.1460078,2019-09-16,7001220,한국교원대학교,
B000002168,서울신명초등학교,초등학교,1982-05-04,공립,본교,운영,서울특별시 강동구 길동 42,서울특별시 강동구 명일로24길 33,7010000,서울특별시교육청,7071000,서울특별시강동송파교육지원청,2013-11-29,2019-09-10,37.5409425176,127.1499889666,2019-09-16,7001220,한국교원대학교,
B000002169,서울길동초등학교,초등학교,1974-06-07,공립,본교,운영,서울특별시 강동구 길동 362,서울특별시 강동구 양재대로116길 69,7010000,서울특별시교육청,7071000,서울특별시강동송파교육지원청,2013-11-29,2019-09-10,37.5385062,127.1449740741,2019-09-16,7001220,한국교원대학교,
B000002170,서울천동초등학교,초등학교,1983-06-07,공립,본교,운영,서울특별시 강동구 길동 371-1,서울특별시 강동구 성안로 200,7010000,서울특별시교육청,7071000,서울특별시강동송파교육지원청,2013-11-29,2019-09-10,37.5405852,127.1375686,2019-09-16,7001220,한국교원대학교,
B000002171,서울한산초등학교,초등학교,1990-05-01,공립,본교,운영,서울특별시 강동구 둔촌동 149,서울특별시 강동구 풍성로 261,7010000,서울특별시교육청,7071000,서울특별시강동송파교육지원청,2013-11-29,2019-09-10,37.5283976,127.1413645,2019-09-16,7001220,한국교원대학교,
B000002173,서울명원초등학교,초등학교,1987-04-22,공립,본교,운영,서울특별시 강동구 명일동 39,서울특별시 강동구 명일로 364,7010000,서울특별시교육청,7071000,서울특별시강동송파교육지원청,2013-11-29,2019-09-10,37.5512241,127.1507304,2019-09-16,7001220,한국교원대학교,
B000002174,서울대명초등학교,초등학교,1986-05-06,공립,본교,운영,서울특별시 강동구 명일동 234,서울특별시 강동구 상암로 271,7010000,서울특별시교육청,7071000,서울특별시강동송파교육지원청,2013-11-29,2019-09-10,37.5476037,127.1528696,2019-09-16,7001220,한국교원대학교,
B000002175,서울고일초등학교,초등학교,1984-05-06,공립,본교,운영,서울특별시 강동구 상일동 125,서울특별시 강동구 구천면로93길 20,7010000,서울특별시교육청,7071000,서울특별시강동송파교육지원청,2013-11-29,2019-09-10,37.5520581,127.1690875,2019-09-16,7001220,한국교원대학교,
B000002176,서울상일초등학교,초등학교,1921-10-02,공립,본교,운영,서울특별시 강동구 상일동 325-1,서울특별시 강동구 천호대로 1477,7010000,서울특별시교육청,7071000,서울특별시강동송파교육지원청,2013-11-29,2019-09-10,37.5471408,127.1723329,2019-09-16,7001220,한국교원대학교,
B000002177,서울강명초등학교,초등학교,2011-03-01,공립,본교,운영,서울특별시 강동구 상일동 480,서울특별시 강동구 상일로 74-1,7010000,서울특별시교육청,7071000,서울특별시강동송파교육지원청,2013-11-29,2019-09-10,37.5548237,127.1733624,2019-09-16,7001220,한국교원대학교,
B000002178,서울성일초등학교,초등학교,1983-10-06,공립,본교,운영,서울특별시 강동구 성내동 531,서울특별시 강동구 성내로15길 33,7010000,서울특별시교육청,7071000,서울특별시강동송파교육지원청,2013-11-29,2019-09-10,37.5291153,127.1283576,2019-09-16,7001220,한국교원대학교,
B000002179,서울성내초등학교,초등학교,1969-03-27,공립,본교,운영,서울특별시 강동구 성내동 300-3,서울특별시 강동구 성내로3길 19,7010000,서울특별시교육청,7071000,서울특별시강동송파교육지원청,2013-11-29,2019-09-10,37.5314221,127.1224654,2019-09-16,7001220,한국교원대학교,
B000002180,서울명일초등학교,초등학교,1980-10-06,공립,본교,운영,서울특별시 강동구 암사동 418-18,서울특별시 강동구 고덕로38길 8,7010000,서울특별시교육청,7071000,서울특별시강동송파교육지원청,2013-11-29,2019-09-10,37.5545423636,127.1425695083,2019-09-16,7001220,한국교원대학교,
B000002181,서울천일초등학교,초등학교,1985-10-17,공립,본교,운영,서울특별시 강동구 천호동 217-70,서울특별시 강동구 구천면로 266,7010000,서울특별시교육청,7071000,서울특별시강동송파교육지원청,2013-11-29,2019-09-10,37.5441771,127.1333855,2019-09-16,7001220,한국교원대학교,
B000002182,서울천호초등학교,초등학교,1944-09-20,공립,본교,운영,서울특별시 강동구 천호동 230-9,서울특별시 강동구 구천면로 310-11,7010000,서울특별시교육청,7071000,서울특별시강동송파교육지원청,2013-11-29,2019-09-10,37.5473577,127.1364524,2019-09-16,7001220,한국교원대학교,
B000002183,서울강동초등학교,초등학교,1977-05-04,공립,본교,운영,서울특별시 강동구 천호동 306,서울특별시 강동구 상암로14길 77,7010000,서울특별시교육청,7071000,서울특별시강동송파교육지원청,2013-11-29,2019-09-10,37.5461063,127.1304605,2019-09-16,7001220,한국교원대학교,
B000002184,서울선사초등학교,초등학교,2001-09-01,공립,본교,운영,서울특별시 강동구 암사동 186-1,서울특별시 강동구 올림픽로 837,7010000,서울특별시교육청,7071000,서울특별시강동송파교육지원청,2013-11-29,2019-09-10,37.5558399,127.1284369,2019-09-16,7001220,한국교원대학교,
B000002185,서울신암초등학교,초등학교,1980-11-03,공립,본교,운영,서울특별시 강동구 암사동 517,서울특별시 강동구 올림픽로93길 33-16,7010000,서울특별시교육청,7071000,서울특별시강동송파교육지원청,2013-11-29,2019-09-10,37.5497646,127.1243019,2019-09-16,7001220,한국교원대학교,
B000002186,서울신은초등학교,초등학교,2011-09-01,공립,본교,운영,서울특별시 양천구 신정동 1319,서울특별시 양천구 신정이펜2로 30,7010000,서울특별시교육청,7081000,서울특별시강서양천교육지원청,2013-11-29,2019-09-10,37.5139921,126.8320115,2019-09-16,7001220,한국교원대학교,
B000002187,서울목원초등학교,초등학교,1995-06-05,공립,본교,운영,서울특별시 양천구 목동 191-1,서울특별시 양천구 목동중앙로 204,7010000,서울특별시교육청,7081000,서울특별시강서양천교육지원청,2013-11-29,2019-09-10,37.5427277,126.8824793,2019-09-16,7001220,한국교원대학교,
B000002188,서울경인초등학교,초등학교,1986-11-27,공립,본교,운영,서울특별시 양천구 목동 911-4,서울특별시 양천구 안양천로 1009,7010000,서울특별시교육청,7081000,서울특별시강서양천교육지원청,2013-11-29,2019-09-10,37.5328933,126.8863349,2019-09-16,7001220,한국교원대학교,
B000002189,서울서정초등학교,초등학교,1987-10-17,공립,본교,운영,서울특별시 양천구 목동 927-5,서울특별시 양천구 목동로8길 19,7010000,서울특별시교육청,7081000,서울특별시강서양천교육지원청,2013-11-29,2019-09-10,37.5238990,126.8671743,2019-09-16,7001220,한국교원대학교,
B000002190,서울목운초등학교,초등학교,2009-05-06,공립,본교,운영,서울특별시 양천구 목동 922,서울특별시 양천구 목동동로 235,7010000,서울특별시교육청,7081000,서울특별시강서양천교육지원청,2013-11-29,2019-09-10,37.5269904,126.8730106,2019-09-16,7001220,한국교원대학교,
B000002191,서울계남초등학교,초등학교,1979-05-06,공립,본교,운영,서울특별시 양천구 신정동 325-7,서울특별시 양천구 목동동로2길 54,7010000,서울특별시교육청,7081000,서울특별시강서양천교육지원청,2013-11-29,2019-09-10,37.5100874,126.8599994,2019-09-16,7001220,한국교원대학교,
B000002192,서울은정초등학교,초등학교,1996-07-10,공립,본교,운영,서울특별시 양천구 신정동 276-2,서울특별시 양천구 목동남로 85,7010000,서울특별시교육청,7081000,서울특별시강서양천교육지원청,2013-11-29,2019-09-10,37.5108159,126.8669853,2019-09-16,7001220,한국교원대학교,
B000002193,서울신서초등학교,초등학교,1987-10-22,공립,본교,운영,서울특별시 양천구 신정동 312-1,서울특별시 양천구 목동서로10길 35,7010000,서울특별시교육청,7081000,서울특별시강서양천교육지원청,2013-11-29,2019-09-10,37.5205957,126.8625771,2019-09-16,7001220,한국교원대학교,
B000002194,서울양명초등학교,초등학교,1983-03-02,공립,본교,운영,서울특별시 양천구 신정동 310-6,서울특별시 양천구 중앙로 204,7010000,서울특별시교육청,7081000,서울특별시강서양천교육지원청,2013-11-29,2019-09-10,37.5163750410,126.8566344160,2019-09-16,7001220,한국교원대학교,
B000002195,서울신기초등학교,초등학교,2010-10-02,공립,본교,운영,서울특별시 양천구 신정동 1274,서울특별시 양천구 신정로 292,7010000,서울특별시교육청,7081000,서울특별시강서양천교육지원청,2013-11-29,2019-09-10,37.5110164,126.8540515,2019-09-16,7001220,한국교원대학교,
B000002196,서울남명초등학교,초등학교,1992-10-29,공립,본교,운영,서울특별시 양천구 신정동 653-5,서울특별시 양천구 중앙로23길 3,7010000,서울특별시교육청,7081000,서울특별시강서양천교육지원청,2013-11-29,2019-09-10,37.5153939,126.8538873,2019-09-16,7001220,한국교원대학교,
B000002197,서울양목초등학교,초등학교,1980-04-17,공립,본교,운영,서울특별시 양천구 신정동 1001,서울특별시 양천구 목동로11길 30,7010000,서울특별시교육청,7081000,서울특별시강서양천교육지원청,2013-11-29,2019-09-10,37.5236502,126.8616964,2019-09-16,7001220,한국교원대학교,
B000002198,서울갈산초등학교,초등학교,1987-11-26,공립,본교,운영,서울특별시 양천구 신정동 330-10,서울특별시 양천구 목동로 31,7010000,서울특별시교육청,7081000,서울특별시강서양천교육지원청,2013-11-29,2019-09-10,37.5118348,126.8699978,2019-09-16,7001220,한국교원대학교,
B000002199,서울강신초등학교,초등학교,1985-03-04,공립,본교,운영,서울특별시 양천구 신월동 6-7,서울특별시 양천구 월정로 280,7010000,서울특별시교육청,7081000,서울특별시강서양천교육지원청,2013-11-29,2019-09-10,37.5428793,126.8295869,2019-09-16,7001220,한국교원대학교,
B000002200,서울양화초등학교,초등학교,1979-04-04,공립,본교,운영,서울특별시 양천구 목동 542,서울특별시 양천구 목동중앙북로16길 57,7010000,서울특별시교육청,7081000,서울특별시강서양천교육지원청,2013-11-29,2019-09-10,37.5437143,126.8744087,2019-09-16,7001220,한국교원대학교,
B000002201,서울정목초등학교,초등학교,1981-09-21,공립,본교,운영,서울특별시 양천구 목동 757-2,서울특별시 양천구 목동중앙로3길 30-10,7010000,서울특별시교육청,7081000,서울특별시강서양천교육지원청,2013-11-29,2019-09-10,37.5370581,126.8703211,2019-09-16,7001220,한국교원대학교,
B000002202,서울양원초등학교,초등학교,1991-05-06,공립,본교,운영,서울특별시 양천구 신월동 260-1,서울특별시 양천구 화곡로 16,7010000,서울특별시교육청,7081000,서울특별시강서양천교육지원청,2013-11-29,2019-09-10,37.5384029,126.8233181,2019-09-16,7001220,한국교원대학교,
B000002203,서울신원초등학교,초등학교,1981-07-19,공립,본교,운영,서울특별시 양천구 신월동 202-1,서울특별시 양천구 남부순환로58길 32,7010000,서울특별시교육청,7081000,서울특별시강서양천교육지원청,2013-11-29,2019-09-10,37.5295028,126.8299687,2019-09-16,7001220,한국교원대학교,
B000002204,서울강서초등학교,초등학교,1980-10-18,공립,본교,운영,서울특별시 양천구 신월동 441,서울특별시 양천구 오목로 31,7010000,서울특별시교육청,7081000,서울특별시강서양천교육지원청,2013-11-29,2019-09-10,37.5223088,126.8409133,2019-09-16,7001220,한국교원대학교,
B000002205,서울신강초등학교,초등학교,1984-06-01,공립,본교,운영,서울특별시 양천구 신월동 864,서울특별시 양천구 중앙로55길 72,7010000,서울특별시교육청,7081000,서울특별시강서양천교육지원청,2013-11-29,2019-09-10,37.5259562,126.8416536,2019-09-16,7001220,한국교원대학교,
B000002206,서울양강초등학교,초등학교,1987-04-23,공립,본교,운영,서울특별시 양천구 신월동 496,서울특별시 양천구 오목로 101,7010000,서울특별시교육청,7081000,서울특별시강서양천교육지원청,2013-11-29,2019-09-10,37.5240784,126.8479995,2019-09-16,7001220,한국교원대학교,
B000002207,서울신남초등학교,초등학교,1983-10-24,공립,본교,운영,서울특별시 양천구 신월동 587,서울특별시 양천구 절골8길 33,7010000,서울특별시교육청,7081000,서울특별시강서양천교육지원청,2013-11-29,2019-09-10,37.5162714,126.8442690,2019-09-16,7001220,한국교원대학교,
B000002208,서울강월초등학교,초등학교,1988-05-06,공립,본교,운영,서울특별시 양천구 신월동 987-3,서울특별시 양천구 신월로 97,7010000,서울특별시교육청,7081000,서울특별시강서양천교육지원청,2013-11-29,2019-09-10,37.5159595,126.8341623,2019-09-16,7001220,한국교원대학교,
B000002209,서울목동초등학교,초등학교,1974-07-01,공립,본교,운영,서울특별시 양천구 신정동 86-2,서울특별시 양천구 목동동로12길 12,7010000,서울특별시교육청,7081000,서울특별시강서양천교육지원청,2013-11-29,2019-09-10,37.5224822,126.8721597,2019-09-16,7001220,한국교원대학교,
B000002210,서울신목초등학교,초등학교,1982-04-08,공립,본교,운영,서울특별시 양천구 신정동 281-2,서울특별시 양천구 신목로5길 11-6,7010000,서울특별시교육청,7081000,서울특별시강서양천교육지원청,2013-11-29,2019-09-10,37.5169159,126.8726846,2019-09-16,7001220,한국교원대학교,
B000002211,서울지향초등학교,초등학교,2002-09-01,공립,본교,운영,서울특별시 양천구 신정동 1284,서울특별시 양천구 신정로11길 74,7010000,서울특별시교육청,7081000,서울특별시강서양천교육지원청,2013-11-29,2019-09-10,37.5127825,126.8371342,2019-09-16,7001220,한국교원대학교,
B000002212,서울장수초등학교,초등학교,2006-03-01,공립,본교,운영,서울특별시 양천구 신정동 1288-2,서울특별시 양천구 신정로13가길 30,7010000,서울특별시교육청,7081000,서울특별시강서양천교육지원청,2013-11-29,2019-09-10,37.5128680,126.8450848,2019-09-16,7001220,한국교원대학교,
B000002213,서울양동초등학교,초등학교,1972-08-11,공립,본교,운영,서울특별시 양천구 신정동 941,서울특별시 양천구 오목로23길 24,7010000,서울특별시교육청,7081000,서울특별시강서양천교육지원청,2013-11-29,2019-09-10,37.5260060,126.8511587,2019-09-16,7001220,한국교원대학교,
B000002214,서울월촌초등학교,초등학교,1986-04-17,공립,본교,운영,서울특별시 양천구 목동 901-1,서울특별시 양천구 목동중앙로 132,7010000,서울특별시교육청,7081000,서울특별시강서양천교육지원청,2013-11-29,2019-09-10,37.5402367,126.8764371,2019-09-16,7001220,한국교원대학교,
B000002215,서울영도초등학교,초등학교,1986-11-27,공립,본교,운영,서울특별시 양천구 목동 903-1,서울특별시 양천구 목동중앙로 70,7010000,서울특별시교육청,7081000,서울특별시강서양천교육지원청,2013-11-29,2019-09-10,37.5357019,126.8716258,2019-09-16,7001220,한국교원대학교,
B000002216,서울화일초등학교,초등학교,2005-05-06,공립,본교,운영,서울특별시 강서구 화곡동 61-184,서울특별시 강서구 까치산로10길 70,7010000,서울특별시교육청,7081000,서울특별시강서양천교육지원청,2013-11-29,2019-09-10,37.5403602,126.8474076,2019-09-16,7001220,한국교원대학교,
B000002217,서울우장초등학교,초등학교,1983-06-10,공립,본교,운영,서울특별시 강서구 화곡동 18-5,서울특별시 강서구 화곡로 263,7010000,서울특별시교육청,7081000,서울특별시강서양천교육지원청,2013-11-29,2019-09-10,37.5492011,126.8460773,2019-09-16,7001220,한국교원대학교,
B000002218,서울신정초등학교,초등학교,1949-10-01,공립,본교,운영,서울특별시 강서구 화곡동 869-42,서울특별시 강서구 곰달래로31가길 27,7010000,서울특별시교육청,7081000,서울특별시강서양천교육지원청,2013-11-29,2019-09-10,37.5327438,126.8524559,2019-09-16,7001220,한국교원대학교,
B000002219,서울신곡초등학교,초등학교,1984-10-22,공립,본교,운영,서울특별시 강서구 화곡동 476-42,서울특별시 강서구 등촌로13자길 42-14,7010000,서울특별시교육청,7081000,서울특별시강서양천교육지원청,2013-11-29,2019-09-10,37.5390734,126.8556963,2019-09-16,7001220,한국교원대학교,
B000002220,서울등마초등학교,초등학교,2009-03-02,공립,본교,운영,서울특별시 강서구 등촌동 718,서울특별시 강서구 등촌로35길 12,7010000,서울특별시교육청,7081000,서울특별시강서양천교육지원청,2013-11-29,2019-09-10,37.5420258,126.8616338,2019-09-16,7001220,한국교원대학교,
B000002221,서울등양초등학교,초등학교,1994-11-30,공립,본교,운영,서울특별시 강서구 등촌동 691,서울특별시 강서구 강서로56나길 140,7010000,서울특별시교육청,7081000,서울특별시강서양천교육지원청,2013-11-29,2019-09-10,37.5648029,126.8446660,2019-09-16,7001220,한국교원대학교,
B000002222,서울염경초등학교,초등학교,2005-10-26,공립,본교,운영,서울특별시 강서구 염창동 79,서울특별시 강서구 양천로69길 49,7010000,서울특별시교육청,7081000,서울특별시강서양천교육지원청,2013-11-29,2019-09-10,37.5548065,126.8712574,2019-09-16,7001220,한국교원대학교,
B000002223,서울염창초등학교,초등학교,1963-07-01,공립,본교,운영,서울특별시 강서구 염창동 269,서울특별시 강서구 양천로 646-28,7010000,서울특별시교육청,7081000,서울특별시강서양천교육지원청,2013-11-29,2019-09-10,37.5529516,126.8677461,2019-09-16,7001220,한국교원대학교,
B000002224,서울염강초등학교,초등학교,1994-10-26,공립,본교,운영,서울특별시 강서구 가양동 1492,서울특별시 강서구 허준로 221-22,7010000,서울특별시교육청,7081000,서울특별시강서양천교육지원청,2013-11-29,2019-09-10,37.5611473,126.8644193,2019-09-16,7001220,한국교원대학교,
B000002225,서울치현초등학교,초등학교,1994-09-01,공립,본교,운영,서울특별시 강서구 방화동 833,서울특별시 강서구 방화대로47길 43,7010000,서울특별시교육청,7081000,서울특별시강서양천교육지원청,2013-11-29,2019-09-10,37.5755781,126.8146538,2019-09-16,7001220,한국교원대학교,
B000002226,서울삼정초등학교,초등학교,1994-05-06,공립,본교,운영,서울특별시 강서구 방화동 798,서울특별시 강서구 금낭화로 222,7010000,서울특별시교육청,7081000,서울특별시강서양천교육지원청,2013-11-29,2019-09-10,37.5803891,126.8108471,2019-09-16,7001220,한국교원대학교,
B000002227,서울정곡초등학교,초등학교,1993-09-23,공립,본교,운영,서울특별시 강서구 방화동 836,서울특별시 강서구 방화대로50길 22,7010000,서울특별시교육청,7081000,서울특별시강서양천교육지원청,2013-11-29,2019-09-10,37.5769549,126.8189082,2019-09-16,7001220,한국교원대학교,
B000002228,서울가곡초등학교,초등학교,1993-04-13,공립,본교,운영,서울특별시 강서구 마곡동 728-28,서울특별시 강서구 공항대로36길 74,7010000,서울특별시교육청,7081000,서울특별시강서양천교육지원청,2013-11-29,2019-09-10,37.5557076033,126.83610183,2019-09-16,7001220,한국교원대학교,
B000002229,서울발산초등학교,초등학교,1979-10-18,공립,본교,운영,서울특별시 강서구 내발산동 408,서울특별시 강서구 강서로45길 113,7010000,서울특별시교육청,7081000,서울특별시강서양천교육지원청,2013-11-29,2019-09-10,37.5503201,126.8310383,2019-09-16,7001220,한국교원대학교,
B000002230,서울양천초등학교,초등학교,1900-04-01,공립,본교,운영,서울특별시 강서구 가양동 272-11,서울특별시 강서구 양천로 329,7010000,서울특별시교육청,7081000,서울특별시강서양천교육지원청,2013-11-29,2019-09-10,37.5701684,126.8395913,2019-09-16,7001220,한국교원대학교,
B000002232,서울탑산초등학교,초등학교,1994-06-01,공립,본교,운영,서울특별시 강서구 가양동 1473,서울특별시 강서구 허준로 109,7010000,서울특별시교육청,7081000,서울특별시강서양천교육지원청,2013-11-29,2019-09-10,37.5666739,126.8521896,2019-09-16,7001220,한국교원대학교,
B000002233,서울가양초등학교,초등학교,1992-07-15,공립,본교,운영,서울특별시 강서구 가양동 1484,서울특별시 강서구 허준로 186,7010000,서울특별시교육청,7081000,서울특별시강서양천교육지원청,2013-11-29,2019-09-10,37.5617004,126.8586437,2019-09-16,7001220,한국교원대학교,
B000002235,서울송정초등학교,초등학교,1936-09-06,공립,본교,운영,서울특별시 강서구 공항동 22-16,서울특별시 강서구 공항대로3길 18,7010000,서울특별시교육청,7081000,서울특별시강서양천교육지원청,2013-11-29,2019-09-10,37.5627589,126.8110229,2019-09-16,7001220,한국교원대학교,
B000002236,서울내발산초등학교,초등학교,1984-06-21,공립,본교,운영,서울특별시 강서구 내발산동 707,서울특별시 강서구 강서로46길 23,7010000,서울특별시교육청,7081000,서울특별시강서양천교육지원청,2013-11-29,2019-09-10,37.5512480,126.8377005,2019-09-16,7001220,한국교원대학교,
B000002237,서울등촌초등학교,초등학교,1982-07-07,공립,본교,운영,서울특별시 강서구 등촌동 520-4,서울특별시 강서구 등촌로39길 71,7010000,서울특별시교육청,7081000,서울특별시강서양천교육지원청,2013-11-29,2019-09-10,37.5474955,126.8577618,2019-09-16,7001220,한국교원대학교,
B000002238,서울백석초등학교,초등학교,1984-05-22,공립,본교,운영,서울특별시 강서구 등촌동 650-14,서울특별시 강서구 공항대로 491,7010000,서울특별시교육청,7081000,서울특별시강서양천교육지원청,2013-11-29,2019-09-10,37.5534229,126.8621938,2019-09-16,7001220,한국교원대학교,
B000002239,서울송화초등학교,초등학교,1990-10-04,공립,본교,운영,서울특별시 강서구 마곡동 731-229,서울특별시 강서구 방화대로34길 2,7010000,서울특별시교육청,7081000,서울특별시강서양천교육지원청,2013-11-29,2019-09-10,37.5682741,126.8174653,2019-09-16,7001220,한국교원대학교,
B000002240,서울개화초등학교,초등학교,1956-07-10,공립,본교,운영,서울특별시 강서구 방화동 502,서울특별시 강서구 양천로 11,7010000,서울특별시교육청,7081000,서울특별시강서양천교육지원청,2013-11-29,2019-09-10,37.5736852,126.8046641,2019-09-16,7001220,한국교원대학교,
B000002241,서울방화초등학교,초등학교,1986-05-06,공립,본교,운영,서울특별시 강서구 방화동 542-2,서울특별시 강서구 양천로6길 92,7010000,서울특별시교육청,7081000,서울특별시강서양천교육지원청,2013-11-29,2019-09-10,37.5687036382,126.8074988480,2019-09-16,7001220,한국교원대학교,
B000002242,서울염동초등학교,초등학교,1997-05-16,공립,본교,운영,서울특별시 강서구 염창동 45-4,서울특별시 강서구 양천로73길 17,7010000,서울특별시교육청,7081000,서울특별시강서양천교육지원청,2013-11-29,2019-09-10,37.5521222,126.8723730,2019-09-16,7001220,한국교원대학교,
B000002243,서울화곡초등학교,초등학교,1967-03-01,공립,본교,운영,서울특별시 강서구 화곡동 24-266,서울특별시 강서구 초록마을로 28,7010000,서울특별시교육청,7081000,서울특별시강서양천교육지원청,2013-11-29,2019-09-10,37.5432456,126.8459511,2019-09-16,7001220,한국교원대학교,
B000002244,서울월정초등학교,초등학교,1982-04-23,공립,본교,운영,서울특별시 강서구 화곡동 374-1,서울특별시 강서구 월정로 176,7010000,서울특별시교육청,7081000,서울특별시강서양천교육지원청,2013-11-29,2019-09-10,37.5347268,126.8360595,2019-09-16,7001220,한국교원대학교,
B000002245,서울신월초등학교,초등학교,1975-03-11,공립,본교,운영,서울특별시 강서구 화곡동 1080,서울특별시 강서구 강서로31길 48,7010000,서울특별시교육청,7081000,서울특별시강서양천교육지원청,2013-11-29,2019-09-10,37.5401017,126.8390990,2019-09-16,7001220,한국교원대학교,
B000002246,서울등서초등학교,초등학교,1984-11-02,공립,본교,운영,서울특별시 강서구 화곡동 산212,서울특별시 강서구 화곡로58길 86,7010000,서울특별시교육청,7081000,서울특별시강서양천교육지원청,2013-11-29,2019-09-10,37.5518272,126.8549719,2019-09-16,7001220,한국교원대학교,
B000002247,서울등명초등학교,초등학교,1995-12-06,공립,본교,운영,서울특별시 강서구 등촌동 690-2,서울특별시 강서구 강서로56나길 34,7010000,서울특별시교육청,7081000,서울특별시강서양천교육지원청,2013-11-29,2019-09-10,37.5606241,126.8425361,2019-09-16,7001220,한국교원대학교,
B000002248,서울등현초등학교,초등학교,1995-10-21,공립,본교,운영,서울특별시 강서구 등촌동 702-5,서울특별시 강서구 화곡로65길 124,7010000,서울특별시교육청,7081000,서울특별시강서양천교육지원청,2013-11-29,2019-09-10,37.5613697,126.8480367,2019-09-16,7001220,한국교원대학교,
B000002249,서울등원초등학교,초등학교,1993-10-26,공립,본교,운영,서울특별시 강서구 등촌동 704-1,서울특별시 강서구 화곡로65길 90,7010000,서울특별시교육청,7081000,서울특별시강서양천교육지원청,2013-11-29,2019-09-10,37.5603228,126.8500834,2019-09-16,7001220,한국교원대학교,
B000002250,서울수명초등학교,초등학교,2008-03-01,공립,본교,운영,서울특별시 강서구 내발산동 752,서울특별시 강서구 수명로1길 84,7010000,서울특별시교육청,7081000,서울특별시강서양천교육지원청,2013-11-29,2019-09-10,37.5527743821,126.8238445,2019-09-16,7001220,한국교원대학교,
B000002251,유석초등학교,초등학교,1965-03-08,사립,본교,운영,서울특별시 강서구 등촌동 82-1,서울특별시 강서구 화곡로69길 9,7010000,서울특별시교육청,7081000,서울특별시강서양천교육지원청,2013-11-29,2019-09-10,37.5608059,126.8537249,2019-09-16,7001220,한국교원대학교,
B000002252,서울우면초등학교,초등학교,2012-03-01,공립,본교,운영,서울특별시 서초구 우면동 690,서울특별시 서초구 태봉로 59,7010000,서울특별시교육청,7091000,서울특별시강남서초교육지원청,2013-11-29,2019-09-10,37.4647093873,127.0237894,2019-09-16,7001220,한국교원대학교,
B000002253,서울교육대학교부설초등학교,초등학교,1953-04-15,국립,본교,운영,서울특별시 서초구 서초동 1650,서울특별시 서초구 서초중앙로 96,7010000,서울특별시교육청,7091000,서울특별시강남서초교육지원청,2013-11-29,2019-09-10,37.4899286,127.0158653,2019-09-16,7001220,한국교원대학교,
B000002254,서울신중초등학교,초등학교,1936-06-01,공립,본교,운영,서울특별시 서초구 서초동 1466-5,서울특별시 서초구 남부순환로317길 15,7010000,서울특별시교육청,7091000,서울특별시강남서초교육지원청,2013-11-29,2019-09-10,37.4801745,127.0098006,2019-09-16,7001220,한국교원대학교,
B000002255,서울서원초등학교,초등학교,1985-04-22,공립,본교,운영,서울특별시 서초구 반포동 30-8,서울특별시 서초구 고무래로 63,7010000,서울특별시교육청,7091000,서울특별시강남서초교육지원청,2013-11-29,2019-09-10,37.5027958,127.0151377,2019-09-16,7001220,한국교원대학교,
B000002256,서울원촌초등학교,초등학교,1979-09-18,공립,본교,운영,서울특별시 서초구 반포동 21,서울특별시 서초구 사평대로45길 26,7010000,서울특별시교육청,7091000,서울특별시강남서초교육지원청,2013-11-29,2019-09-10,37.5061857,127.0124612,2019-09-16,7001220,한국교원대학교,
B000002257,서울잠원초등학교,초등학교,1978-11-21,공립,본교,운영,서울특별시 서초구 반포동 17,서울특별시 서초구 신반포로16길 15-25,7010000,서울특별시교육청,7091000,서울특별시강남서초교육지원청,2013-11-29,2019-09-10,37.5018585469,126.9980966,2019-09-16,7001220,한국교원대학교,
B000002258,서울반원초등학교,초등학교,1982-04-06,공립,본교,운영,서울특별시 서초구 잠원동 72,서울특별시 서초구 잠원로3길 28,7010000,서울특별시교육청,7091000,서울특별시강남서초교육지원청,2013-11-29,2019-09-10,37.5102082,127.0039023,2019-09-16,7001220,한국교원대학교,
B000002259,서울매헌초등학교,초등학교,2008-03-01,공립,본교,운영,서울특별시 서초구 양재동 311-1,서울특별시 서초구 언남길 8,7010000,서울특별시교육청,7091000,서울특별시강남서초교육지원청,2013-11-29,2019-09-10,37.4710670,127.0420698,2019-09-16,7001220,한국교원대학교,
B000002261,서울반포초등학교,초등학교,1974-03-20,공립,본교,운영,서울특별시 서초구 반포동 937,서울특별시 서초구 신반포로 55-4,7010000,서울특별시교육청,7091000,서울특별시강남서초교육지원청,2013-11-29,2019-09-10,37.5027416,126.9910009,2019-09-16,7001220,한국교원대학교,
B000002262,서울방일초등학교,초등학교,1984-10-25,공립,본교,운영,서울특별시 서초구 방배동 167-4,서울특별시 서초구 방배로18길 52,7010000,서울특별시교육청,7091000,서울특별시강남서초교육지원청,2013-11-29,2019-09-10,37.4853656,126.9982024,2019-09-16,7001220,한국교원대학교,
B000002263,서울이수초등학교,초등학교,1978-04-13,공립,본교,운영,서울특별시 서초구 방배동 468-6,서울특별시 서초구 방배천로4길 23,7010000,서울특별시교육청,7091000,서울특별시강남서초교육지원청,2013-11-29,2019-09-10,37.4783196,126.9845650,2019-09-16,7001220,한국교원대학교,
B000002264,서울서래초등학교,초등학교,1983-04-04,공립,본교,운영,서울특별시 서초구 방배동 771,서울특별시 서초구 방배로 260,7010000,서울특별시교육청,7091000,서울특별시강남서초교육지원청,2013-11-29,2019-09-10,37.4963529,126.9898009,2019-09-16,7001220,한국교원대학교,
B000002265,서울방배초등학교,초등학교,1975-09-12,공립,본교,운영,서울특별시 서초구 방배동 861-1,서울특별시 서초구 방배중앙로13길 26,7010000,서울특별시교육청,7091000,서울특별시강남서초교육지원청,2013-11-29,2019-09-10,37.4871653,126.9874257,2019-09-16,7001220,한국교원대학교,
B000002266,서울방현초등학교,초등학교,1990-11-02,공립,본교,운영,서울특별시 서초구 방배동 산81-1,서울특별시 서초구 효령로4길 58,7010000,서울특별시교육청,7091000,서울특별시강남서초교육지원청,2013-11-29,2019-09-10,37.4763718,126.9901500,2019-09-16,7001220,한국교원대학교,
B000002267,서울서초초등학교,초등학교,1982-05-06,공립,본교,운영,서울특별시 서초구 서초동 1310-6,서울특별시 서초구 서운로 178,7010000,서울특별시교육청,7091000,서울특별시강남서초교육지원청,2013-11-29,2019-09-10,37.4993310,127.0242296,2019-09-16,7001220,한국교원대학교,
B000002268,서울서이초등학교,초등학교,1984-03-01,공립,본교,운영,서울특별시 서초구 서초동 1334-2,서울특별시 서초구 서운로 35,7010000,서울특별시교육청,7091000,서울특별시강남서초교육지원청,2013-11-29,2019-09-10,37.4913032,127.0259479,2019-09-16,7001220,한국교원대학교,
B000002269,서울서일초등학교,초등학교,1986-10-16,공립,본교,운영,서울특별시 서초구 서초동 1436-8,서울특별시 서초구 남부순환로339길 38,7010000,서울특별시교육청,7091000,서울특별시강남서초교육지원청,2013-11-29,2019-09-10,37.4851056,127.0222041,2019-09-16,7001220,한국교원대학교,
B000002270,서울원명초등학교,초등학교,1990-05-04,공립,본교,운영,서울특별시 서초구 서초동 1685-1,서울특별시 서초구 고무래로 90-6,7010000,서울특별시교육청,7091000,서울특별시강남서초교육지원청,2013-11-29,2019-09-10,37.5006470,127.0165694,2019-09-16,7001220,한국교원대학교,
B000002271,서울양재초등학교,초등학교,1984-10-24,공립,본교,운영,서울특별시 서초구 양재동 101,서울특별시 서초구 바우뫼로18길 14,7010000,서울특별시교육청,7091000,서울특별시강남서초교육지원청,2013-11-29,2019-09-10,37.4737650,127.0316178,2019-09-16,7001220,한국교원대학교,
B000002272,서울우암초등학교,초등학교,1994-11-01,공립,본교,운영,서울특별시 서초구 우면동 58,서울특별시 서초구 바우뫼로7길 38,7010000,서울특별시교육청,7091000,서울특별시강남서초교육지원청,2013-11-29,2019-09-10,37.4721905,127.0239065,2019-09-16,7001220,한국교원대학교,
B000002273,서울신동초등학교,초등학교,1946-04-02,공립,본교,운영,서울특별시 서초구 잠원동 54-5,서울특별시 서초구 나루터로 15,7010000,서울특별시교육청,7091000,서울특별시강남서초교육지원청,2013-11-29,2019-09-10,37.5170464,127.0116439,2019-09-16,7001220,한국교원대학교,
B000002274,계성초등학교,초등학교,1882-09-08,사립,본교,운영,서울특별시 서초구 반포동 6-1,서울특별시 서초구 신반포로19길 23,7010000,서울특별시교육청,7091000,서울특별시강남서초교육지원청,2013-11-29,2019-09-10,37.5044669,126.9964732,2019-09-16,7001220,한국교원대학교,
B000002275,서울봉은초등학교,초등학교,1982-04-07,공립,본교,운영,서울특별시 강남구 삼성동 79-2,서울특별시 강남구 학동로 610,7010000,서울특별시교육청,7091000,서울특별시강남서초교육지원청,2013-11-29,2019-09-10,37.5201521,127.0609811,2019-09-16,7001220,한국교원대학교,
B000002276,서울대왕초등학교,초등학교,1933-05-01,공립,본교,운영,서울특별시 강남구 세곡동 517,서울특별시 강남구 헌릉로618길 8,7010000,서울특별시교육청,7091000,서울특별시강남서초교육지원청,2013-11-29,2019-09-10,37.4641998,127.1056184,2019-09-16,7001220,한국교원대학교,
B000002277,서울수서초등학교,초등학교,1992-07-15,공립,본교,운영,서울특별시 강남구 수서동 709,서울특별시 강남구 광평로51길 46,7010000,서울특별시교육청,7091000,서울특별시강남서초교육지원청,2013-11-29,2019-09-10,37.4909843,127.1015496,2019-09-16,7001220,한국교원대학교,
B000002278,서울대모초등학교,초등학교,1994-10-14,공립,본교,운영,서울특별시 강남구 일원동 736,서울특별시 강남구 광평로20길 27,7010000,서울특별시교육청,7091000,서울특별시강남서초교육지원청,2013-11-29,2019-09-10,37.4814341,127.0865193,2019-09-16,7001220,한국교원대학교,
B000002279,서울대진초등학교,초등학교,1992-10-26,공립,본교,운영,서울특별시 강남구 개포동 13,서울특별시 강남구 개포로109길 74,7010000,서울특별시교육청,7091000,서울특별시강남서초교육지원청,2013-11-29,2019-09-10,37.4970272,127.0779765,2019-09-16,7001220,한국교원대학교,
B000002280,서울양전초등학교,초등학교,1989-05-06,공립,본교,운영,서울특별시 강남구 개포동 183,서울특별시 강남구 개포로 513,7010000,서울특별시교육청,7091000,서울특별시강남서초교육지원청,2013-11-29,2019-09-10,37.4903657,127.0694778,2019-09-16,7001220,한국교원대학교,
B000002281,서울구룡초등학교,초등학교,1985-05-06,공립,본교,운영,서울특별시 강남구 개포동 655,서울특별시 강남구 개포로 263,7010000,서울특별시교육청,7091000,서울특별시강남서초교육지원청,2013-11-29,2019-09-10,37.4807232,127.0518910,2019-09-16,7001220,한국교원대학교,
B000002282,서울언주초등학교,초등학교,1927-10-08,공립,본교,운영,서울특별시 강남구 도곡동 922,서울특별시 강남구 남부순환로363길 19,7010000,서울특별시교육청,7091000,서울특별시강남서초교육지원청,2013-11-29,2019-09-10,37.4862841,127.0367809,2019-09-16,7001220,한국교원대학교,
B000002283,서울대치초등학교,초등학교,1984-05-09,공립,본교,운영,서울특별시 강남구 대치동 505,서울특별시 강남구 양재천로 363,7010000,서울특별시교육청,7091000,서울특별시강남서초교육지원청,2013-11-29,2019-09-10,37.4909822,127.0624593,2019-09-16,7001220,한국교원대학교,
B000002284,서울도곡초등학교,초등학교,1975-03-12,공립,본교,운영,서울특별시 강남구 대치동 924-10,서울특별시 강남구 선릉로64길 33,7010000,서울특별시교육청,7091000,서울특별시강남서초교육지원청,2013-11-29,2019-09-10,37.4993211,127.0549280,2019-09-16,7001220,한국교원대학교,
B000002285,서울대도초등학교,초등학교,1980-03-27,공립,본교,운영,서울특별시 강남구 도곡동 106-1,서울특별시 강남구 선릉로 209,7010000,서울특별시교육청,7091000,서울특별시강남서초교육지원청,2013-11-29,2019-09-10,37.4928283,127.0531484,2019-09-16,7001220,한국교원대학교,
B000002286,서울개일초등학교,초등학교,1987-09-01,공립,본교,운영,서울특별시 강남구 개포동 174,서울특별시 강남구 개포로 401,7010000,서울특별시교육청,7091000,서울특별시강남서초교육지원청,2013-11-29,2019-09-10,37.4861543,127.0577760,2019-09-16,7001220,한국교원대학교,
B000002289,서울논현초등학교,초등학교,1972-11-23,공립,본교,운영,서울특별시 강남구 논현동 168,서울특별시 강남구 강남대로120길 33,7010000,서울특별시교육청,7091000,서울특별시강남서초교육지원청,2013-11-29,2019-09-10,37.5081699,127.0260317,2019-09-16,7001220,한국교원대학교,
B000002290,서울학동초등학교,초등학교,1979-04-11,공립,본교,운영,서울특별시 강남구 논현동 264-7,서울특별시 강남구 선릉로115길 42,7010000,서울특별시교육청,7091000,서울특별시강남서초교육지원청,2013-11-29,2019-09-10,37.5125348,127.0397082,2019-09-16,7001220,한국교원대학교,
B000002291,서울대곡초등학교,초등학교,1982-04-02,공립,본교,운영,서울특별시 강남구 대치동 510,서울특별시 강남구 남부순환로 3022,7010000,서울특별시교육청,7091000,서울특별시강남서초교육지원청,2013-11-29,2019-09-10,37.4943975,127.0646926,2019-09-16,7001220,한국교원대학교,
B000002292,서울대현초등학교,초등학교,1985-05-08,공립,본교,운영,서울특별시 강남구 대치동 969,서울특별시 강남구 역삼로98길 16,7010000,서울특별시교육청,7091000,서울특별시강남서초교육지원청,2013-11-29,2019-09-10,37.5038985,127.0636435,2019-09-16,7001220,한국교원대학교,
B000002293,서울삼릉초등학교,초등학교,1985-03-01,공립,본교,운영,서울특별시 강남구 삼성동 42,서울특별시 강남구 봉은사로63길 22,7010000,서울특별시교육청,7091000,서울특별시강남서초교육지원청,2013-11-29,2019-09-10,37.5131023,127.0469142,2019-09-16,7001220,한국교원대학교,
B000002294,서울왕북초등학교,초등학교,1963-10-31,공립,본교,운영,서울특별시 강남구 수서동 745,서울특별시 강남구 광평로31길 74,7010000,서울특별시교육청,7091000,서울특별시강남서초교육지원청,2013-11-29,2019-09-10,37.4864123,127.0860392,2019-09-16,7001220,한국교원대학교,
B000002295,서울신구초등학교,초등학교,1981-11-03,공립,본교,운영,서울특별시 강남구 신사동 550-11,서울특별시 강남구 압구정로18길 28,7010000,서울특별시교육청,7091000,서울특별시강남서초교육지원청,2013-11-29,2019-09-10,37.5233603,127.0240264,2019-09-16,7001220,한국교원대학교,
B000002296,서울압구정초등학교,초등학교,1977-05-04,공립,본교,운영,서울특별시 강남구 압구정동 461,서울특별시 강남구 압구정로39길 29,7010000,서울특별시교육청,7091000,서울특별시강남서초교육지원청,2013-11-29,2019-09-10,37.5316708,127.0311650,2019-09-16,7001220,한국교원대학교,
B000002297,서울도성초등학교,초등학교,1981-09-30,공립,본교,운영,서울특별시 강남구 역삼동 714,서울특별시 강남구 역삼로 313,7010000,서울특별시교육청,7091000,서울특별시강남서초교육지원청,2013-11-29,2019-09-10,37.5013049,127.0489326,2019-09-16,7001220,한국교원대학교,
B000002298,서울역삼초등학교,초등학교,1979-09-27,공립,본교,운영,서울특별시 강남구 역삼동 833-7,서울특별시 강남구 강남대로66길 21,7010000,서울특별시교육청,7091000,서울특별시강남서초교육지원청,2013-11-29,2019-09-10,37.4929180,127.0328543,2019-09-16,7001220,한국교원대학교,
B000002299,서울대청초등학교,초등학교,1993-02-27,공립,본교,운영,서울특별시 강남구 일원동 712,서울특별시 강남구 양재대로55길 28,7010000,서울특별시교육청,7091000,서울특별시강남서초교육지원청,2013-11-29,2019-09-10,37.4931172,127.0875746,2019-09-16,7001220,한국교원대학교,
B000002300,서울영희초등학교,초등학교,1946-10-01,공립,본교,운영,서울특별시 강남구 일원동 617,서울특별시 강남구 일원로 21,7010000,서울특별시교육청,7091000,서울특별시강남서초교육지원청,2013-11-29,2019-09-10,37.4922499,127.0808759,2019-09-16,7001220,한국교원대학교,
B000002301,서울일원초등학교,초등학교,1984-10-10,공립,본교,운영,서울특별시 강남구 일원동 691,서울특별시 강남구 영동대로4길 20,7010000,서울특별시교육청,7091000,서울특별시강남서초교육지원청,2013-11-29,2019-09-10,37.4898353,127.0762907,2019-09-16,7001220,한국교원대학교,
B000002302,서울언북초등학교,초등학교,1945-04-01,공립,본교,운영,서울특별시 강남구 청담동 27,서울특별시 강남구 삼성로135길 42,7010000,서울특별시교육청,7091000,서울특별시강남서초교육지원청,2013-11-29,2019-09-10,37.5199603,127.0451000,2019-09-16,7001220,한국교원대학교,
B000002303,서울청담초등학교,초등학교,1980-04-04,공립,본교,운영,서울특별시 강남구 청담동 142,서울특별시 강남구 압구정로71길 9,7010000,서울특별시교육청,7091000,서울특별시강남서초교육지원청,2013-11-29,2019-09-10,37.5279762,127.0452701,2019-09-16,7001220,한국교원대학교,
B000002304,서울포이초등학교,초등학교,1990-10-24,공립,본교,운영,서울특별시 강남구 개포동 1273,서울특별시 강남구 개포로22길 87,7010000,서울특별시교육청,7091000,서울특별시강남서초교육지원청,2013-11-29,2019-09-10,37.4756209,127.0520896,2019-09-16,7001220,한국교원대학교,
B000002305,서울신상도초등학교,초등학교,1982-04-12,공립,본교,운영,서울특별시 동작구 상도동 204-333,서울특별시 동작구 장승배기로 14,7010000,서울특별시교육청,7101000,서울특별시동작관악교육지원청,2013-11-29,2019-09-10,37.5004006,126.9440809,2019-09-16,7001220,한국교원대학교,
B000002306,서울강남초등학교,초등학교,1945-11-02,공립,본교,운영,서울특별시 동작구 상도1동 501-1,서울특별시 동작구 강남초등길 15,7010000,서울특별시교육청,7101000,서울특별시동작관악교육지원청,2013-11-29,2019-09-10,37.5060798,126.9535841,2019-09-16,7001220,한국교원대학교,
B000002307,서울노량진초등학교,초등학교,1948-03-20,공립,본교,운영,서울특별시 동작구 노량진동 237,서울특별시 동작구 장승배기로 160,7010000,서울특별시교육청,7101000,서울특별시동작관악교육지원청,2013-11-29,2019-09-10,37.5113579,126.9409291,2019-09-16,7001220,한국교원대학교,
B000002308,서울본동초등학교,초등학교,1948-10-30,공립,본교,운영,서울특별시 동작구 본동 133,서울특별시 동작구 노량진로26길 16-40,7010000,서울특별시교육청,7101000,서울특별시동작관악교육지원청,2013-11-29,2019-09-10,37.5100908,126.9537363,2019-09-16,7001220,한국교원대학교,
B000002309,서울은로초등학교,초등학교,1908-11-01,공립,본교,운영,서울특별시 동작구 흑석동 245-1,서울특별시 동작구 서달로 115,7010000,서울특별시교육청,7101000,서울특별시동작관악교육지원청,2013-11-29,2019-09-10,37.5031946,126.9602147,2019-09-16,7001220,한국교원대학교,
B000002310,서울동작초등학교,초등학교,1983-04-06,공립,본교,운영,서울특별시 동작구 사당동 산9-1,서울특별시 동작구 동작대로29길 214,7010000,서울특별시교육청,7101000,서울특별시동작관악교육지원청,2013-11-29,2019-09-10,37.4942206,126.9770792,2019-09-16,7001220,한국교원대학교,
B000002311,서울삼일초등학교,초등학교,2007-09-01,공립,본교,운영,서울특별시 동작구 사당동 산18-38,서울특별시 동작구 사당로23나길 27,7010000,서울특별시교육청,7101000,서울특별시동작관악교육지원청,2013-11-29,2019-09-10,37.4882355,126.9751016,2019-09-16,7001220,한국교원대학교,
B000002312,서울행림초등학교,초등학교,1992-05-06,공립,본교,운영,서울특별시 동작구 사당동 산32-114,서울특별시 동작구 솔밭로 47,7010000,서울특별시교육청,7101000,서울특별시동작관악교육지원청,2013-11-29,2019-09-10,37.4828060747,126.9649638207,2019-09-16,7001220,한국교원대학교,
B000002313,서울신남성초등학교,초등학교,1975-03-11,공립,본교,운영,서울특별시 동작구 사당동 199-1,서울특별시 동작구 사당로 146,7010000,서울특별시교육청,7101000,서울특별시동작관악교육지원청,2013-11-29,2019-09-10,37.4886163,126.9651691,2019-09-16,7001220,한국교원대학교,
B000002314,서울영화초등학교,초등학교,1962-09-03,공립,본교,운영,서울특별시 동작구 대방동 13-2,서울특별시 동작구 등용로8길 3,7010000,서울특별시교육청,7101000,서울특별시동작관악교육지원청,2013-11-29,2019-09-10,37.5089070338,126.9329751321,2019-09-16,7001220,한국교원대학교,
B000002315,서울신길초등학교,초등학교,1964-03-12,공립,본교,운영,서울특별시 동작구 대방동 351-6,서울특별시 동작구 알마타길 16,7010000,서울특별시교육청,7101000,서울특별시동작관악교육지원청,2013-11-29,2019-09-10,37.5102562,126.9265808,2019-09-16,7001220,한국교원대학교,
B000002316,서울대림초등학교,초등학교,1974-04-02,공립,본교,운영,서울특별시 동작구 대방동 391-62,서울특별시 동작구 대방동1길 22,7010000,서울특별시교육청,7101000,서울특별시동작관악교육지원청,2013-11-29,2019-09-10,37.5005994,126.9253563,2019-09-16,7001220,한국교원대학교,
B000002317,서울영본초등학교,초등학교,1967-11-27,공립,본교,운영,서울특별시 동작구 본동 441-11,서울특별시 동작구 만양로12가길 69,7010000,서울특별시교육청,7101000,서울특별시동작관악교육지원청,2013-11-29,2019-09-10,37.5105022,126.9485347,2019-09-16,7001220,한국교원대학교,
B000002318,서울남성초등학교,초등학교,1967-12-05,공립,본교,운영,서울특별시 동작구 사당동 324-22,서울특별시 동작구 사당로23길 57-14,7010000,서울특별시교육청,7101000,서울특별시동작관악교육지원청,2013-11-29,2019-09-10,37.4844416,126.9758314,2019-09-16,7001220,한국교원대학교,
B000002319,서울남사초등학교,초등학교,1979-09-27,공립,본교,운영,서울특별시 동작구 사당동 1011-1,서울특별시 동작구 동작대로13길 22,7010000,서울특별시교육청,7101000,서울특별시동작관악교육지원청,2013-11-29,2019-09-10,37.4822359,126.9785565,2019-09-16,7001220,한국교원대학교,
B000002320,서울상도초등학교,초등학교,1967-03-11,공립,본교,운영,서울특별시 동작구 상도동 238-2,서울특별시 동작구 성대로21길 62,7010000,서울특별시교육청,7101000,서울특별시동작관악교육지원청,2013-11-29,2019-09-10,37.4997141,126.9373558,2019-09-16,7001220,한국교원대학교,
B000002321,서울보라매초등학교,초등학교,2005-05-06,공립,본교,운영,서울특별시 동작구 신대방동 488-1,서울특별시 동작구 여의대방로16길 30,7010000,서울특별시교육청,7101000,서울특별시동작관악교육지원청,2013-11-29,2019-09-10,37.4957958,126.9160970,2019-09-16,7001220,한국교원대학교,
B000002322,서울문창초등학교,초등학교,1946-04-06,공립,본교,운영,서울특별시 동작구 신대방동 640,서울특별시 동작구 신대방2길 14,7010000,서울특별시교육청,7101000,서울특별시동작관악교육지원청,2013-11-29,2019-09-10,37.4889831201,126.9148424622,2019-09-16,7001220,한국교원대학교,
B000002323,서울흑석초등학교,초등학교,1968-09-23,공립,본교,운영,서울특별시 동작구 흑석동 7-1,서울특별시 동작구 현충로 87,7010000,서울특별시교육청,7101000,서울특별시동작관악교육지원청,2013-11-29,2019-09-10,37.5084802,126.9650367,2019-09-16,7001220,한국교원대학교,
B000002324,중앙대학교사범대학부속초등학교,초등학교,1965-03-08,사립,본교,운영,서울특별시 동작구 흑석동 233-2,서울특별시 동작구 서달로 135,7010000,서울특별시교육청,7101000,서울특별시동작관악교육지원청,2013-11-29,2019-09-10,37.5053803,126.9602450,2019-09-16,7001220,한국교원대학교,
B000002325,서울원신초등학교,초등학교,2002-10-22,공립,본교,운영,서울특별시 관악구 신림동 336,서울특별시 관악구 광신길 177,7010000,서울특별시교육청,7101000,서울특별시동작관악교육지원청,2013-11-29,2019-09-10,37.4670480,126.9274239,2019-09-16,7001220,한국교원대학교,
B000002326,서울남부초등학교,초등학교,1985-10-08,공립,본교,운영,서울특별시 관악구 신림동 467,서울특별시 관악구 남부순환로163길 14,7010000,서울특별시교육청,7101000,서울특별시동작관악교육지원청,2013-11-29,2019-09-10,37.4850413,126.9221169,2019-09-16,7001220,한국교원대학교,
B000002327,서울신우초등학교,초등학교,1978-04-06,공립,본교,운영,서울특별시 관악구 신림동 315,서울특별시 관악구 호암로 498,7010000,서울특별시교육청,7101000,서울특별시동작관악교육지원청,2013-11-29,2019-09-10,37.4626215,126.9323353,2019-09-16,7001220,한국교원대학교,
B000002328,서울신림초등학교,초등학교,1969-12-09,공립,본교,운영,서울특별시 관악구 신림동 418-20,서울특별시 관악구 문성로28길 31,7010000,서울특별시교육청,7101000,서울특별시동작관악교육지원청,2013-11-29,2019-09-10,37.4771503,126.9272999,2019-09-16,7001220,한국교원대학교,
B000002329,서울조원초등학교,초등학교,2005-03-01,공립,본교,운영,서울특별시 관악구 신림동 548-2,서울특별시 관악구 조원로 67,7010000,서울특별시교육청,7101000,서울특별시동작관악교육지원청,2013-11-29,2019-09-10,37.4841778,126.9094507,2019-09-16,7001220,한국교원대학교,
B000002330,서울난곡초등학교,초등학교,1971-04-22,공립,본교,운영,서울특별시 관악구 신림동 711-136,서울특별시 관악구 난곡로35길 102,7010000,서울특별시교육청,7101000,서울특별시동작관악교육지원청,2013-11-29,2019-09-10,37.4692405,126.9166641,2019-09-16,7001220,한국교원대학교,
B000002331,서울삼성초등학교,초등학교,1972-10-23,공립,본교,운영,서울특별시 관악구 신림동 233-1,서울특별시 관악구 대학7길 52,7010000,서울특별시교육청,7101000,서울특별시동작관악교육지원청,2013-11-29,2019-09-10,37.4678163,126.9409762,2019-09-16,7001220,한국교원대학교,
B000002332,서울미성초등학교,초등학교,1980-04-17,공립,본교,운영,서울특별시 관악구 신림동 768-23,서울특별시 관악구 문성로 79,7010000,서울특별시교육청,7101000,서울특별시동작관악교육지원청,2013-11-29,2019-09-10,37.4779314,126.9126806,2019-09-16,7001220,한국교원대학교,
B000002333,서울봉현초등학교,초등학교,2003-05-27,공립,본교,운영,서울특별시 관악구 봉천동 1704,서울특별시 관악구 성현로 117,7010000,서울특별시교육청,7101000,서울특별시동작관악교육지원청,2013-11-29,2019-09-10,37.4910197,126.9556171,2019-09-16,7001220,한국교원대학교,
B000002334,서울청룡초등학교,초등학교,1985-10-18,공립,본교,운영,서울특별시 관악구 봉천동 390-3,서울특별시 관악구 관악로5길 61,7010000,서울특별시교육청,7101000,서울특별시동작관악교육지원청,2013-11-29,2019-09-10,37.4756972,126.9512057,2019-09-16,7001220,한국교원대학교,
B000002335,서울봉천초등학교,초등학교,1967-09-15,공립,본교,운영,서울특별시 관악구 봉천동 28-6,서울특별시 관악구 행운1라길 17,7010000,서울특별시교육청,7101000,서울특별시동작관악교육지원청,2013-11-29,2019-09-10,37.4829254,126.9578363,2019-09-16,7001220,한국교원대학교,
B000002336,서울원당초등학교,초등학교,1973-06-27,공립,본교,운영,서울특별시 관악구 봉천동 1669-1,서울특별시 관악구 봉천로 505,7010000,서울특별시교육청,7101000,서울특별시동작관악교육지원청,2013-11-29,2019-09-10,37.4811233,126.9560764,2019-09-16,7001220,한국교원대학교,
B000002337,서울사당초등학교,초등학교,1972-07-13,공립,본교,운영,서울특별시 관악구 남현동 1080-1,서울특별시 관악구 남현4길 51,7010000,서울특별시교육청,7101000,서울특별시동작관악교육지원청,2013-11-29,2019-09-10,37.4736353,126.9740756,2019-09-16,7001220,한국교원대학교,
B000002338,서울인헌초등학교,초등학교,1980-04-02,공립,본교,운영,서울특별시 관악구 봉천동 212-3,서울특별시 관악구 낙성대로 23,7010000,서울특별시교육청,7101000,서울특별시동작관악교육지원청,2013-11-29,2019-09-10,37.4767532754,126.9598656241,2019-09-16,7001220,한국교원대학교,
B000002339,서울당곡초등학교,초등학교,1974-09-10,공립,본교,운영,서울특별시 관악구 봉천동 692-8,서울특별시 관악구 보라매로2길 23,7010000,서울특별시교육청,7101000,서울특별시동작관악교육지원청,2013-11-29,2019-09-10,37.4900001,126.9298977,2019-09-16,7001220,한국교원대학교,
B000002340,서울신봉초등학교,초등학교,1981-07-13,공립,본교,운영,서울특별시 관악구 봉천동 458,서울특별시 관악구 양녕로6나길 1,7010000,서울특별시교육청,7101000,서울특별시동작관악교육지원청,2013-11-29,2019-09-10,37.4854747,126.9492175,2019-09-16,7001220,한국교원대학교,
B000002341,서울구암초등학교,초등학교,1977-02-11,공립,본교,운영,서울특별시 관악구 봉천동 482-1,서울특별시 관악구 구암길 1,7010000,서울특별시교육청,7101000,서울특별시동작관악교육지원청,2013-11-29,2019-09-10,37.4894968,126.9468782,2019-09-16,7001220,한국교원대학교,
B000002342,서울은천초등학교,초등학교,1958-04-01,공립,본교,운영,서울특별시 관악구 봉천동 622-1,서울특별시 관악구 은천로 69,7010000,서울특별시교육청,7101000,서울특별시동작관악교육지원청,2013-11-29,2019-09-10,37.4868591,126.9429033,2019-09-16,7001220,한국교원대학교,
B000002343,서울관악초등학교,초등학교,1971-12-04,공립,본교,운영,서울특별시 관악구 봉천동 920,서울특별시 관악구 청룡4길 49,7010000,서울특별시교육청,7101000,서울특별시동작관악교육지원청,2013-11-29,2019-09-10,37.4808067,126.9428902,2019-09-16,7001220,한국교원대학교,
B000002344,서울난우초등학교,초등학교,1976-12-03,공립,본교,운영,서울특별시 관악구 신림동 589-1,서울특별시 관악구 난우길 40,7010000,서울특별시교육청,7101000,서울특별시동작관악교육지원청,2013-11-29,2019-09-10,37.4769379,126.9178675,2019-09-16,7001220,한국교원대학교,
B000002345,서울난향초등학교,초등학교,1981-04-06,공립,본교,운영,서울특별시 관악구 신림동 672,서울특별시 관악구 난향길 9,7010000,서울특별시교육청,7101000,서울특별시동작관악교육지원청,2013-11-29,2019-09-10,37.4624143,126.9180741,2019-09-16,7001220,한국교원대학교,
B000002346,서울신성초등학교,초등학교,1982-10-11,공립,본교,운영,서울특별시 관악구 신림동 118-1,서울특별시 관악구 신림로 114,7010000,서울특별시교육청,7101000,서울특별시동작관악교육지원청,2013-11-29,2019-09-10,37.4717967,126.9371520,2019-09-16,7001220,한국교원대학교,
B000002347,서울행당초등학교,초등학교,1962-10-26,공립,본교,운영,서울특별시 성동구 행당동 320-60,서울특별시 성동구 고산자로8길 6,7010000,서울특별시교육청,7111000,서울특별시성동광진교육지원청,2013-11-29,2019-09-10,37.5564432,127.0346730,2019-09-16,7001220,한국교원대학교,
B000002348,서울동호초등학교,초등학교,2010-03-01,공립,본교,운영,서울특별시 성동구 옥수동 556-1,서울특별시 성동구 동호로5길 133,7010000,서울특별시교육청,7111000,서울특별시성동광진교육지원청,2013-11-29,2019-09-10,37.5464613636,127.0100328,2019-09-16,7001220,한국교원대학교,
B000002349,서울경동초등학교,초등학교,1913-10-01,공립,본교,운영,서울특별시 성동구 성수동1가 19-1,서울특별시 성동구 성수일로 34,7010000,서울특별시교육청,7111000,서울특별시성동광진교육지원청,2013-11-29,2019-09-10,37.5436794,127.0502832,2019-09-16,7001220,한국교원대학교,
B000002350,서울경수초등학교,초등학교,1981-04-29,공립,본교,운영,서울특별시 성동구 성수동2가 268,서울특별시 성동구 뚝섬로13길 22,7010000,서울특별시교육청,7111000,서울특별시성동광진교육지원청,2013-11-29,2019-09-10,37.5404360421,127.0580689191,2019-09-16,7001220,한국교원대학교,
B000002351,서울금북초등학교,초등학교,1968-11-26,공립,본교,운영,서울특별시 성동구 금호동1가 48-2,서울특별시 성동구 행당로1길 13,7010000,서울특별시교육청,7111000,서울특별시성동광진교육지원청,2013-11-29,2019-09-10,37.5574650,127.0235067,2019-09-16,7001220,한국교원대학교,
B000002352,서울금호초등학교,초등학교,1958-04-01,공립,본교,운영,서울특별시 성동구 금호동2가 511,서울특별시 성동구 무수막길 69,7010000,서울특별시교육청,7111000,서울특별시성동광진교육지원청,2013-11-29,2019-09-10,37.5522036,127.0203276,2019-09-16,7001220,한국교원대학교,
